[{"lat":41.68792900000596,"lon":44.818311000000534,"name":"ორთაჭალა - [1390]","id":1390},{"lat":41.68333600000655,"lon":44.82316800000053,"name":"გორგასლის მოედანი - [1388]","id":1388},{"lat":41.679302000007155,"lon":44.82480000000052,"name":"ორთაჭალის ქუჩა - [1386]","id":1386},{"lat":41.68196498716291,"lon":44.82392765297106,"name":"#72 საჯარო სკოლა - [1387]","id":1387},{"lat":41.6752767570329,"lon":44.82190293727581,"name":"კრწანისის ქუჩა #7ა  მოპირდაპირედ - [1383]","id":1383},{"lat":41.676716000007524,"lon":44.82393000000051,"name":"კრწანისის ქუჩა #3 მოპირდაპირედ - [1384]","id":1384},{"lat":41.6748830000077,"lon":44.81989100000053,"name":"კრწანისის ქუჩა #17ა მოპირდაპირედ - [1381]","id":1381},{"lat":41.674393000007754,"lon":44.815467000000545,"name":"კრწანისის ქუჩა #47 მოპირდაპირედ - [1380]","id":1380},{"lat":41.6707810000083,"lon":44.81363700000055,"name":"კრწანისის ქუჩა #63  - [1377]","id":1377},{"lat":41.670900000008324,"lon":44.815456000000545,"name":"კრწანისის ქუჩა #53 მოპირდაპირედ - [1378]","id":1378},{"lat":41.70934900000301,"lon":44.74114700000078,"name":"ვაკის სასაფლაო - [1397]","id":1397},{"lat":41.708241000003135,"lon":44.73402900000081,"name":"წყნეთის გზატკეცილი #9 - [1398]","id":1398},{"lat":41.7100480000029,"lon":44.73255300000081,"name":"წყნეთის გზატკეცილი #25 - [1399]","id":1399},{"lat":41.722154000001275,"lon":44.79675000000062,"name":"სადგურის მოედანი  #7 (სასტუმრო \"კოლხეთი\") - [1352]","id":1352},{"lat":41.71673200000201,"lon":44.77499100000069,"name":"ჩაილურის ქუჩა  - [1350]","id":1350},{"lat":41.71640600000205,"lon":44.77175600000071,"name":"ტეხურას ქუჩა - [1349]","id":1349},{"lat":41.71590746139497,"lon":44.7695508854147,"name":"ბაკურიანის ქუჩა - [1348]","id":1348},{"lat":41.71628700000209,"lon":44.76793500000072,"name":"ლიხაურის ქუჩა - [1347]","id":1347},{"lat":41.71658554739566,"lon":44.765335760397896,"name":"დოლიძის ქუჩა #89 - [1345]","id":1345},{"lat":41.71639600000204,"lon":44.767619000000714,"name":"ლიხაურის ქუჩა - [1344]","id":1344},{"lat":41.71601107284926,"lon":44.76985997271192,"name":"ბაკურიანის ქუჩა - [1343]","id":1343},{"lat":41.71645300000199,"lon":44.77169600000069,"name":"ტეხურას ქუჩა - [1342]","id":1342},{"lat":41.71784800000184,"lon":44.77716400000068,"name":"დოლიძის ქუჩა - [1340]","id":1340},{"lat":41.717240000001915,"lon":44.77478800000069,"name":"პანკისის ქუჩა - [1341]","id":1341},{"lat":41.70903600000303,"lon":44.87195500000038,"name":"ვარკეთილის IIIა მ/რ #338 მოპირდაპირედ - [1339]","id":1339},{"lat":41.70788746632118,"lon":44.8821631602771,"name":"ვარკეთილი 3-ის IV მ/რ, #421 მოპირდაპირედ - [1336]","id":1336},{"lat":41.70415900000371,"lon":44.882405000000354,"name":"ვარკეთილის 3-ის II მ/რ #18 - [1335]","id":1335},{"lat":41.70965700000295,"lon":44.874135000000386,"name":"ვარკეთილი 3-ის IV მ/რ, #403 - [1338]","id":1338},{"lat":41.70824000000322,"lon":44.87738600000037,"name":"ვარკეთილი 3-ის IV მ/რ, #410 - [1337]","id":1337},{"lat":41.70179540424054,"lon":44.87468686276227,"name":"ვარკეთილის III მ/რ-ის #304 მოპირდაპირედ - [1332]","id":1332},{"lat":41.70190698356187,"lon":44.87170404402909,"name":"სუხიშვილის ქუჩა - [1331]","id":1331},{"lat":41.70245000000398,"lon":44.88124500000035,"name":"სუხიშვილის მოედანი - [1334]","id":1334},{"lat":41.701875377261196,"lon":44.87752580387233,"name":"ვარკეთილის III მ/რ-ის #310 მოპირდაპირედ - [1333]","id":1333},{"lat":41.67533460141545,"lon":44.822082882224585,"name":"კრწანისის ქუჩა #7ა  - [1370]","id":1370},{"lat":41.674452111635496,"lon":44.81555352955195,"name":"კრწანისის ქუჩა #47 - [1373]","id":1373},{"lat":41.67091800000826,"lon":44.81530300000055,"name":"კრწანისის ქუჩა #53 - [1374]","id":1374},{"lat":41.67505400000774,"lon":44.81993900000053,"name":"კრწანისის ქუჩა #17ა - [1371]","id":1371},{"lat":41.68255213658162,"lon":44.82350103243819,"name":"გორგასლის მოედანი - [1367]","id":1367},{"lat":41.686263000006186,"lon":44.82012100000053,"name":"300 არაგველის მემორიალი - [1366]","id":1366},{"lat":41.6878471783283,"lon":44.818141984324434,"name":"ორთაჭალა - [1365]","id":1365},{"lat":41.67691899605316,"lon":44.82397166347475,"name":"კრწანისის ქუჩა #3 - [1369]","id":1369},{"lat":41.69159283603604,"lon":44.80812801539022,"name":"სიონის ეკლესია - [1362]","id":1362},{"lat":41.73719668331453,"lon":44.73914377098838,"name":"ონკოლოგიური კვლევითი ცენტრი - [1354]","id":1354},{"lat":41.736196999999265,"lon":44.746973000000786,"name":"ლისის ტბის დასახლება II - [1353]","id":1353},{"lat":41.731792332872736,"lon":44.754701410147625,"name":"ბერიტაშვილის #1-ის პირდაპირ - [1356]","id":1356},{"lat":41.73048700000005,"lon":44.75808800000074,"name":"ბუდაპეშტის ქუჩა #13ა  - [1355]","id":1355},{"lat":41.7304541681468,"lon":44.75777490490863,"name":"ბუდაპეშტის ქუჩა #13ა-ს მოპირდაპირედ - [1358]","id":1358},{"lat":41.731398000000006,"lon":44.75420800000075,"name":"ბუდაპეშტის ქუჩა #44 - [1357]","id":1357},{"lat":41.73209824300317,"lon":44.83411873497918,"name":"ივერთ უბანი-2-ის პირდაპირ - [3724]","id":3724},{"lat":41.734061632483865,"lon":44.836886032871185,"name":"ივერთ უბანი-3-ის პირდაპირ - [3725]","id":3725},{"lat":41.80570795747164,"lon":44.816267730897664,"name":"თიანეთის გზატკეცილი #21-ის მოპირდაპირედ - [3722]","id":3722},{"lat":41.73097797111722,"lon":44.83147107318767,"name":"ივერთ უბანი-1-ის პირდაპირ - [3723]","id":3723},{"lat":41.72758116838905,"lon":44.740347292351814,"name":"ნუცუბიძის ქუჩა #62ა - [2435]","id":2435},{"lat":41.68569103957437,"lon":44.77522231433375,"name":"თბილისის ქ. #13-ის პირდაპირ - [3720]","id":3720},{"lat":41.72710700000053,"lon":44.73533000000081,"name":"ნუცუბიძის ქუჩა #70 - [2434]","id":2434},{"lat":41.68620751382736,"lon":44.772446054204934,"name":"თბილისის ქ. #18-ის მიმდებარედ - [3721]","id":3721},{"lat":41.73244923264963,"lon":44.722292417372564,"name":"ნუცუბიძის II მ/რ, კვ-3, #9 კ. - [2432]","id":2432},{"lat":41.71950719243998,"lon":44.74242935730029,"name":"სპორტული დარბაზი \"არენა\" - [3726]","id":3726},{"lat":41.71818215306739,"lon":44.73504645100217,"name":"“მერსედესის” ცენტრი-ს მოპირდაპირედ - [3711]","id":3711},{"lat":41.728906000000265,"lon":44.724773000000845,"name":"#130 საბავშვო ბაღი - [2425]","id":2425},{"lat":41.717822365280874,"lon":44.730607096304134,"name":"საბურთალოს სასაფლაოს შესახვევის მოპირდაპირედ - [3712]","id":3712},{"lat":41.717451871041455,"lon":44.724435874078665,"name":"სახ. უნივერსიტეტის ბიბლიოთეკის მოპირდაპირედ - [3713]","id":3713},{"lat":41.71741041384603,"lon":44.72444066749254,"name":"სახ. უნივერსიტეტის ბიბლიოთეკის მიმდებარედ - [3714]","id":3714},{"lat":41.73253899999976,"lon":44.72222000000086,"name":"ნუცუბიძის II მ/რ, კვ-3, #9-ის მოპირდაპირედ - [2426]","id":2426},{"lat":41.718915839638846,"lon":44.73898806728014,"name":"სასტუმრო \"ფაზისის\" მოპირდაპირედ - [3710]","id":3710},{"lat":41.775762149117604,"lon":44.736135351061584,"name":"ჯავახიშვილისა და ფიროსმანის ქუჩების გადაკვეთა - [3719]","id":3719},{"lat":41.71782463917622,"lon":44.731578828486754,"name":"საბურთალოს ეკლესიის შესახვევის მიმდებარედ - [3715]","id":3715},{"lat":41.71804274697143,"lon":44.7345805903185,"name":"\"მერსედესის ცენტრი\"-ს მიმდებარედ - [3716]","id":3716},{"lat":41.71879619497805,"lon":44.73905004355862,"name":"სასტუმრო \"ფაზისი\"-ს მიმდებარედ - [3717]","id":3717},{"lat":41.71986283071988,"lon":44.74440285993336,"name":"ფინანსური პოლიციის მიმდებარედ - [3718]","id":3718},{"lat":41.734968771420256,"lon":44.72059497789188,"name":"ნუცუბიძის IV მ/რ #19ბ  - [2479]","id":2479},{"lat":41.73273099999981,"lon":44.72285100000086,"name":"ნუცუბიძის IV-V მ/რ - [2478]","id":2478},{"lat":41.646980999202704,"lon":44.64577699900448,"name":"კიკეთი - [2475]","id":2475},{"lat":41.73470911182089,"lon":44.72054298703467,"name":"ნუცუბიძის IV მ/რ #19ბ-ის მოპირდაპირედ - [2484]","id":2484},{"lat":41.73635970542806,"lon":44.71859266864019,"name":"ნუცუბიძის II მ/რ #32 - [2483]","id":2483},{"lat":41.75557124944768,"lon":44.67735002965047,"name":"სოფელი ლისის დასაწყისი - [2482]","id":2482},{"lat":41.73658549895835,"lon":44.7186008616372,"name":"ნუცუბიძის IV მ/რ #32-ის მოპირდაპირედ - [2480]","id":2480},{"lat":41.70469000000365,"lon":44.9300600000002,"name":"ორხევისა და თეთრი ხევ-ჰესის დასახლებებს შუაში (მიმავალი ორხევისკენ) - [3707]","id":3707},{"lat":41.70466000000365,"lon":44.93009000000021,"name":"ორხევისა და თეთრი ხევ-ჰესის დასახლებებს შუაში (თეთრი ხევ-ჰესისკენ) - [3706]","id":3706},{"lat":41.670360000008344,"lon":44.84940000000044,"name":"კრწანისის გამგეობის პირდაპირ - [3705]","id":3705},{"lat":41.6701900000084,"lon":44.849980000000436,"name":"კრწანისის გამგეობა - [3704]","id":3704},{"lat":41.719928642329826,"lon":44.744466196264256,"name":"ფინანსური პოლიციის მოპირდაპირედ - [3709]","id":3709},{"lat":41.793581952753534,"lon":44.668585136361536,"name":"სოფ. დიდგორი - [3708]","id":3708},{"lat":41.68562256366781,"lon":44.870173059603275,"name":"ჯავახეთის ქუჩა #2 - [2499]","id":2499},{"lat":41.79213034515867,"lon":44.76452480548464,"name":"ფარნავაზ მეფის ქუჩა - [2497]","id":2497},{"lat":41.6924400000053,"lon":44.81233000000056,"name":"ქეთევან დედოფლის გამზირი - [3703]","id":3703},{"lat":41.78079273195552,"lon":44.79725416241832,"name":"გურამიშვილის გამზ. #4 - [3702]","id":3702},{"lat":41.77699980970252,"lon":44.80547574879378,"name":"ჩარგლის ქ-ს და შატილის ქ-ის გადაკვეთის მიმდებარედ - [3700]","id":3700},{"lat":41.73273599999979,"lon":44.751782000000766,"name":"ბერიტაშვილის ქუჩა #82 - [2145]","id":2145},{"lat":41.7327789999998,"lon":44.75190200000077,"name":"ბერიტაშვილის ქუჩა #82-ის მოპირდაპირედ - [2146]","id":2146},{"lat":41.65109300001093,"lon":44.758289000000694,"name":"სოფელი ტაბახმელა - [2147]","id":2147},{"lat":41.684523058844505,"lon":44.857892168540204,"name":"ს/ს ქაშანაური - [2149]","id":2149},{"lat":41.65864572677692,"lon":44.71240961058332,"name":"ბარათაშვილის ქუჩა #16 - [3680]","id":3680},{"lat":41.72582653354025,"lon":44.77692710837388,"name":"ქალაქ თბილისის მერია - [3684]","id":3684},{"lat":41.70698344272627,"lon":44.774904032436794,"name":"მრგვალი ბაღი (მცხეთის ქ #2-ის მიმდებარედ) - [3683]","id":3683},{"lat":41.725252544247574,"lon":44.71524350648572,"name":"სანდრო ეულის ქუჩა - [3682]","id":3682},{"lat":41.653712531200426,"lon":44.65826506532289,"name":"დიდება - [3681]","id":3681},{"lat":41.70967311864967,"lon":44.820335360556996,"name":"სააკაძის ქ. #57-ის მოპირდაპირე - [3676]","id":3676},{"lat":41.70483770893223,"lon":44.804155186658875,"name":"წინამძღვრიშვილის ქ.#34-ის მიმდებარედ - [3674]","id":3674},{"lat":41.69961517187037,"lon":44.808686883563155,"name":"ხეთაგუროვის ქუჩა 37 - [3675]","id":3675},{"lat":41.70363520462117,"lon":44.80682202976297,"name":"გორკის ქ. #4 - [3678]","id":3678},{"lat":41.65854895562719,"lon":44.71120340892443,"name":"ბარათაშვილის ქ. #22-ის პირდაპირ (კოჯორი) - [3679]","id":3679},{"lat":41.71922272679222,"lon":44.79321308333558,"name":"წინამძღვრიშვილის ქუჩა - [2153]","id":2153},{"lat":41.70575711827913,"lon":44.84300751499549,"name":"ვაზისუბნის II მ/რ #11 - [3200]","id":3200},{"lat":41.68436200000647,"lon":44.85758200000042,"name":"მეველეს ქუჩა - [2155]","id":2155},{"lat":41.70576400000345,"lon":44.84314600000047,"name":"კვაჭანტირაძის ქუჩა - [3202]","id":3202},{"lat":41.76101999999588,"lon":44.7803880000007,"name":"ძიუდოს ეროვნული ფედერაცია - [1894]","id":1894},{"lat":41.69308700000529,"lon":44.854728000000435,"name":"ჩოჩუას ქუჩა - [3201]","id":3201},{"lat":41.75706999999645,"lon":44.7797180000007,"name":"#39 საბავშვო სახლი - [1893]","id":1893},{"lat":41.700184000004285,"lon":44.84975300000045,"name":"ვაზისუბნის I მ/რ #7 მოპირდაპირედ - [3204]","id":3204},{"lat":41.75493599999671,"lon":44.777611000000704,"name":"დიდუბე-ჩუღურეთის რაიონის გამგეობა - [1892]","id":1892},{"lat":41.70097200000418,"lon":44.84896100000045,"name":"ვაზისუბნის I მ/რ #3 - [3203]","id":3203},{"lat":41.69133700000551,"lon":44.952228000000126,"name":"შავი ზღვის უნივერსიტეტი - [3206]","id":3206},{"lat":41.75714699999645,"lon":44.77946400000069,"name":"#39 საბავშვო სახლი - [1898]","id":1898},{"lat":41.6931850000052,"lon":44.85478400000043,"name":"ჩოჩუას ქუჩა - [3205]","id":3205},{"lat":41.76105399999591,"lon":44.78014200000068,"name":"ძიუდოს ეროვნული ფედერაცია - [1897]","id":1897},{"lat":41.666389000008955,"lon":44.919182000000234,"name":"ჭიჭინაძის ქუჩა - [3208]","id":3208},{"lat":41.67475700000779,"lon":44.96130800000011,"name":"შინაგან საქმეთა სამინისტრო - [3207]","id":3207},{"lat":41.66809000000871,"lon":44.91473900000024,"name":"გუმათჰესის ქუჩა #10-ის მოპირდაპირედ - [3209]","id":3209},{"lat":41.74672072453822,"lon":44.7112622278797,"name":"თხივნალას გადასახვევის მოპირდაპირედ - [3691]","id":3691},{"lat":41.746671787754224,"lon":44.71113263841099,"name":"თხივნალას გადასახვევის მიმდებარედ - [3690]","id":3690},{"lat":41.69858587905079,"lon":44.85211083891762,"name":"ვაზისუბნის V მ/რ #26  კორპუსი - [3693]","id":3693},{"lat":41.809503999989225,"lon":44.79933800000065,"name":"სარაჯიშვილის #24 - [3692]","id":3692},{"lat":41.788614459165785,"lon":44.81807676903315,"name":"სუპერმარკეტ ფრესკოს მოპირდაპირედ (მოთხოვნით) - [3695]","id":3695},{"lat":41.78836286888166,"lon":44.81869915627639,"name":"სუპერმარკეტი ფრესკო (მოთხოვნით) - [3694]","id":3694},{"lat":41.725906801405245,"lon":44.77654061968998,"name":"ქალაქ თბილისის მერია - [3685]","id":3685},{"lat":41.67394717315607,"lon":44.809514419019244,"name":"ორთაჭალის #106 - [3686]","id":3686},{"lat":41.726979760718834,"lon":44.83065059302022,"name":"რეხის III შესახვევი #8-ის პირდაპირ - [3687]","id":3687},{"lat":41.74479788601289,"lon":44.71734667245189,"name":"ახალი იპოდრომის მიმდებარედ - [3688]","id":3688},{"lat":41.744766349992744,"lon":44.71722858763841,"name":"ახალი იპოდრომის მოპირდაპირედ - [3689]","id":3689},{"lat":41.75521199999669,"lon":44.76891800000073,"name":"ვაშლიჯვარი - [2166]","id":2166},{"lat":41.703089000003864,"lon":44.80504500000059,"name":"გოგიბერიძის ქუჩა #6 - [2165]","id":2165},{"lat":41.669080000008535,"lon":44.913189000000244,"name":"გუმათჰესის ქუჩა #13-ის მოპირდაპირედ - [3210]","id":3210},{"lat":41.6817780000068,"lon":44.90070100000029,"name":"ჟორესის ქუჩა - [3211]","id":3211},{"lat":41.684321000006456,"lon":44.8980580000003,"name":"ქიზიყის ქუჩა #11  - [3219]","id":3219},{"lat":41.67047600000839,"lon":44.914129000000244,"name":"ცისკარიშვილის ქუჩა - [3218]","id":3218},{"lat":41.68023000000698,"lon":44.905210000000274,"name":"ენუქიძის ქუჩა #8 - [3217]","id":3217},{"lat":41.67916000000722,"lon":44.908003000000264,"name":"ენუქიძის ქუჩა #12 - [3216]","id":3216},{"lat":41.77459418885555,"lon":44.79527931992217,"name":"მ/ს გურამიშვილი - [2167]","id":2167},{"lat":41.67754000000741,"lon":44.91056500000026,"name":"გუმათჰესის ქუჩა - [3215]","id":3215},{"lat":41.774368999994046,"lon":44.79553100000065,"name":"მ/ს გურამიშვილი - [2168]","id":2168},{"lat":41.67721200000743,"lon":44.91075800000026,"name":"გუმათჰესის ქუჩა - [3214]","id":3214},{"lat":41.684607000006395,"lon":44.86669300000039,"name":"ჯავახეთის ქუჩა - [2169]","id":2169},{"lat":41.67912100000716,"lon":44.90779700000027,"name":"ენუქიძის ქუჩა #12 - [3213]","id":3213},{"lat":41.680107000007006,"lon":44.90522400000027,"name":"ენუქიძის ქუჩა #8 - [3212]","id":3212},{"lat":41.677222763002824,"lon":44.77815879586325,"name":"შინდისი (აგარაკები) - [3698]","id":3698},{"lat":41.727605750222374,"lon":44.79911958533103,"name":"ურიდიას ქუჩა - [3699]","id":3699},{"lat":41.69877391897,"lon":44.70526627400547,"name":"ამილახვრის და ლესელიძის გადაკვეთა (მოთხოვნით) - [3696]","id":3696},{"lat":41.78695356138775,"lon":44.76502573023288,"name":"მირიან მეფის და ვეფხისტყაოსანის ქ-ების გადაკვეთა (მოთხოვნით) - [3697]","id":3697},{"lat":41.70205905291171,"lon":44.87770466346412,"name":"ვარკეთილის III მ/რ #310 - [2175]","id":2175},{"lat":41.6842270000065,"lon":44.895699000000306,"name":"ქიზიყის ქუჩა #7  - [3221]","id":3221},{"lat":41.68412400000648,"lon":44.8955420000003,"name":"ქიზიყის ქუჩა #7  - [3222]","id":3222},{"lat":41.71300216642919,"lon":44.8033528369291,"name":"ჩიტაიას ქუჩა #13/2 - [2177]","id":2177},{"lat":41.70183000000408,"lon":44.80743300000058,"name":"ხეთაგუროვის ქუჩა #4  - [2176]","id":2176},{"lat":41.68422700000649,"lon":44.897786000000295,"name":"ქიზიყის ქუჩა #11  - [3220]","id":3220},{"lat":41.78254699999295,"lon":44.798458000000636,"name":"ანაპის 414 დივიზიის ქუჩა - [2171]","id":2171},{"lat":41.651710000010915,"lon":44.906515000000255,"name":"რუსთავის გზატკეცილი #235 - [3228]","id":3228},{"lat":41.66858500000858,"lon":44.89039400000031,"name":"მარელისის ქუჩა - [3227]","id":3227},{"lat":41.65072000001109,"lon":44.90744900000026,"name":"რუსთავის გზატკეცილი #245 - [3229]","id":3229},{"lat":41.683216000006645,"lon":44.900097000000294,"name":"ქიზიყის ქუჩა #13 - [3224]","id":3224},{"lat":41.68333800000661,"lon":44.89993300000028,"name":"ქიზიყის ქუჩა #13 - [3223]","id":3223},{"lat":41.71982300000158,"lon":44.79571400000062,"name":"თამარ მეფის გამზირი - [2178]","id":2178},{"lat":41.66661800000887,"lon":44.89426100000031,"name":"ოცხელების ქუჩა #26-ის მოპირდაპირედ - [3226]","id":3226},{"lat":41.667772000008725,"lon":44.8912680000003,"name":"ოცხელების ქუჩა #8-ის მოპირდაპირედ - [3225]","id":3225},{"lat":41.72599892382523,"lon":44.74995069733639,"name":"ვაჟა-ფშაველას გამზ. #35 - [997]","id":997},{"lat":41.72424900000093,"lon":44.747611000000774,"name":"ანტონოვის ქუჩა - [996]","id":996},{"lat":41.72396583233245,"lon":44.74432197802169,"name":"თამარაშვილის ქუჩა - [994]","id":994},{"lat":41.723815977791986,"lon":44.73906449141768,"name":"ვაჟა ფშაველას #68 - [993]","id":993},{"lat":41.72095200000138,"lon":44.727034000000835,"name":"ქავთარაძის ქუჩა #22 - [992]","id":992},{"lat":41.721706517287274,"lon":44.73339339332358,"name":"ქავთარაძის ქუჩა #27-ის მოპირდაპირედ - [990]","id":990},{"lat":41.739524999998906,"lon":44.9635730000001,"name":"დიდი ლილო - [2188]","id":2188},{"lat":41.63979900001258,"lon":44.91486300000023,"name":"№ 218 საჯარო სკოლის მოპირდაპირედ - [3230]","id":3230},{"lat":41.636373000016036,"lon":44.91709999999879,"name":"გულბანის ქუჩა (ჩრდილოეთით) - [3231]","id":3231},{"lat":41.63983000001251,"lon":44.91497400000024,"name":"№ 218 საჯარო სკოლა - [3232]","id":3232},{"lat":41.64356100001204,"lon":44.89372000000031,"name":"ზემო ფონიჭალა #20 - [3233]","id":3233},{"lat":41.70179584484006,"lon":44.807232182774605,"name":"წმინდა ნიკოლოზის ქუჩა #1 - [2184]","id":2184},{"lat":41.724566000000905,"lon":44.751295000000766,"name":"კარტოზიას ქუჩა - [999]","id":999},{"lat":41.68838400000591,"lon":44.81657600000054,"name":"გორგასლის ქუჩა #19 - [2914]","id":2914},{"lat":41.6578299874208,"lon":44.90959770854489,"name":"ქვედა მელითონეთა დასახლება - [2919]","id":2919},{"lat":41.68363962687176,"lon":44.77664687282722,"name":"რესტორანი \"თაღლაურას\" პირდაპირ - [3640]","id":3640},{"lat":41.71880600000172,"lon":44.76171400000072,"name":"ფანასკერტელ-ციციშვილის ქუჩა - [1860]","id":1860},{"lat":41.71873300000169,"lon":44.759503000000734,"name":"ქვემო ფანასკერტელი - [1861]","id":1861},{"lat":41.65905854882402,"lon":44.903661574867115,"name":"ინდივიდუალური დასახლება #18 გარდაბნის გზატკეცილზე - [2910]","id":2910},{"lat":41.71790738826679,"lon":44.82828478512244,"name":"ნორიოს ქუჩა - [2192]","id":2192},{"lat":41.71570011414114,"lon":44.81811987726426,"name":"ნორიოს აღმართი #54ბ  - [2193]","id":2193},{"lat":41.69269618088023,"lon":44.80203693813312,"name":"დადიანის ქუჩა - [3639]","id":3639},{"lat":41.71415589116439,"lon":44.81767921820467,"name":"ნორიოს აღმართი #54ა - [2194]","id":2194},{"lat":41.683493762434956,"lon":44.952750347227564,"name":"აეროპორტის დასახლება - [3638]","id":3638},{"lat":41.71396939598675,"lon":44.81483138285562,"name":"ნორიოს აღმართი #55 - [2195]","id":2195},{"lat":41.78735840596184,"lon":44.75264027822016,"name":"მირიან მეფის ქუჩა #60 - [2506]","id":2506},{"lat":41.71400882702721,"lon":44.8122286284888,"name":"ჩეჩელაშვილის ქუჩა - [2196]","id":2196},{"lat":41.71405100000239,"lon":44.809755000000585,"name":"მიჩურინის ქუჩა  - [2197]","id":2197},{"lat":41.71271152824218,"lon":44.80727670162586,"name":"კაპანაძის ქუჩა #12 - [2198]","id":2198},{"lat":41.68425610170415,"lon":44.94159943306097,"name":"ხვედელიანის 39-ის მოპირდაპირედ - [3633]","id":3633},{"lat":41.68483681792107,"lon":44.940540284018056,"name":"მე-3 ქუჩის და ხვედელიანი ქ-ის გადაკვეთის მოპირდაპირედ - [3632]","id":3632},{"lat":41.6857895533555,"lon":44.93874481192501,"name":"მე-3 და მე-5 ქუჩების გადაკვეთის მოპირდაპირედ - [3631]","id":3631},{"lat":41.68659262947668,"lon":44.93700746997021,"name":"მე-3 ქუჩა #9 სახლის მიმდებარედ - [3630]","id":3630},{"lat":41.68651615264503,"lon":44.95156179120368,"name":"აეროპორტის დასახლება, 46-ე კორპუსის მიმდებარედ - [3637]","id":3637},{"lat":41.796487999990966,"lon":44.76301400000076,"name":"ფარნავაზ მეფის გამზირი - [2503]","id":2503},{"lat":41.68662971587264,"lon":44.948578421797755,"name":"აეროპორტის დასახლება, 41-ე კორპუსის მიმდებარედ - [3636]","id":3636},{"lat":41.68651704107761,"lon":44.94576702425754,"name":"ხვედელიანის 1/3-ის მოპირდაპირედ - [3635]","id":3635},{"lat":41.69276235134695,"lon":44.95704506437134,"name":"სოფელი დიდი ლილოს გადასახვევი - [2190]","id":2190},{"lat":41.792274999991555,"lon":44.76491700000075,"name":"იოანე პეტრიწის ქუჩა - [2501]","id":2501},{"lat":41.685026702831244,"lon":44.94440087048962,"name":"ხვედელიანის 21-ის მოპირდაპირედ - [3634]","id":3634},{"lat":41.717886134613266,"lon":44.82229882837153,"name":"ცაიშის ქუჩა #36 - [2191]","id":2191},{"lat":41.718285000001785,"lon":44.76862900000071,"name":"#162 საჯარო სკოლა - [1858]","id":1858},{"lat":41.78540599999257,"lon":44.83453400000053,"name":"მუხიანის III მ/რ  #5ა - [2902]","id":2902},{"lat":41.71867952919493,"lon":44.766033290203154,"name":"ჯვართამაღლების ეკლესია - [1859]","id":1859},{"lat":41.71821400000177,"lon":44.768559000000714,"name":"#162 საჯარო სკოლა - [1856]","id":1856},{"lat":41.718990875723215,"lon":44.77073464691274,"name":"იყალთოს გორა #40 - [1857]","id":1857},{"lat":41.75984374670096,"lon":44.65442872150094,"name":"სოფელი ლისი  - [2903]","id":2903},{"lat":41.66591900000899,"lon":44.8963660000003,"name":"ოცხელებისა და ნაკადულის ქუჩების გადაკვეთა - [2906]","id":2906},{"lat":41.73103665260443,"lon":44.76796503002623,"name":"ჟვანიას მოედანი - [3650]","id":3650},{"lat":41.66776200000871,"lon":44.89146400000031,"name":"ოცხელების ქუჩა #8 - [2908]","id":2908},{"lat":41.75550371242107,"lon":44.7671117399093,"name":"გოძიაშვილის ქუჩა #7 - [3651]","id":3651},{"lat":41.66665600000888,"lon":44.894382000000306,"name":"ოცხელების ქუჩა #26 - [2907]","id":2907},{"lat":41.719665426679725,"lon":44.760670573945276,"name":"წმინდა ანტონ მარყოფელის სახელობის ეკლესია - [1851]","id":1851},{"lat":41.71890800000166,"lon":44.76368700000072,"name":"ზემო ფანასკერტელი - [1854]","id":1854},{"lat":41.718578856681724,"lon":44.76606032139895,"name":"ჯვართამაღლების ეკლესია - [1855]","id":1855},{"lat":41.71969872655055,"lon":44.759612827048436,"name":"წმინდა ანტონ მარყოფელის სახელობის ეკლესია - [1852]","id":1852},{"lat":41.71867200000177,"lon":44.75959900000073,"name":"ქვემო ფანასკერტელი - [1853]","id":1853},{"lat":41.712044374695054,"lon":44.72443959296228,"name":"წყნეთის გზატკეცილი (ამხანაგობა 2007-ის პირდაპირ) - [3649]","id":3649},{"lat":41.65974685266036,"lon":44.719974051138834,"name":"ბარათაშვილის ქ-ის და კოჯრის გზატკ-ის გადაკვეთის პირდაპირ - [3642]","id":3642},{"lat":41.6724880000081,"lon":44.8646280000004,"name":"ბოგდან ხმელნიცკის ქუჩა #147ა - [2909]","id":2909},{"lat":41.66170848691355,"lon":44.762205509141694,"name":"კოჯრის გზატკ. და წინანაურის ქ-ის გადაკვეთის პირდაპირ (შინდისი) - [3641]","id":3641},{"lat":41.666703148545984,"lon":44.678945041927,"name":"კოჯრის ბატალიონის პირდაპირ - [3644]","id":3644},{"lat":41.66237296179961,"lon":44.70015297925703,"name":"კოჯრის გზატკ-ის და იუნკერების ქუჩების გადაკვეთის პირდაპირ - [3643]","id":3643},{"lat":41.66769382313308,"lon":44.762026087100764,"name":"წავკისის გადასახვევი - [3645]","id":3645},{"lat":41.68415719197862,"lon":44.779518236717415,"name":"ოქროყანის გადასახვევის პირდაპირ - [3648]","id":3648},{"lat":41.68361559594122,"lon":44.77679532184239,"name":"რესტორანი \"თაღლაურა\" (მოთხოვნით) - [3647]","id":3647},{"lat":41.814334701405784,"lon":44.78078795673783,"name":"ფერაძის ქ.#47-ის მოპირდაპირედ - [3661]","id":3661},{"lat":41.779815586680556,"lon":44.80324677852134,"name":"ურეკის ქ. #16-ის მიმდებარედ - [3662]","id":3662},{"lat":41.68527700000635,"lon":44.999634999999984,"name":"შპს თეთრონი - [2939]","id":2939},{"lat":41.684477000006446,"lon":44.995887999999994,"name":"ს/ს ეკრანი - [2938]","id":2938},{"lat":41.68332900000661,"lon":44.99208500000002,"name":"ფარმაცევტული ქარხანა ავერსი - [2937]","id":2937},{"lat":41.68225400000679,"lon":44.98751800000002,"name":"მეფრინველეობის ქუჩა - [2936]","id":2936},{"lat":41.68009200000708,"lon":44.98709600000002,"name":"მეფრინველეობის ქუჩა #3  - [2935]","id":2935},{"lat":41.67964900000711,"lon":44.983880000000035,"name":"მეფრინველეობის ქუჩა #17 ა - [2934]","id":2934},{"lat":41.690252717918334,"lon":44.85031137700344,"name":"ყარყარაშვილის ქუჩა #10 - [1885]","id":1885},{"lat":41.68850240574665,"lon":44.851575575752214,"name":"#74 საჯარო სკოლა  - [1886]","id":1886},{"lat":41.67876300000718,"lon":44.84186200000046,"name":"საექიმოს გასასვლელი #42 - [2931]","id":2931},{"lat":41.7396039999989,"lon":44.80290400000061,"name":"ლუბოვსკის #53 - [2930]","id":2930},{"lat":41.696250302982826,"lon":44.84254740180956,"name":"ყვარელის ქუჩა #98 - [1881]","id":1881},{"lat":41.69486767212082,"lon":44.844124459017635,"name":"ყვარელის ქუჩა #86 - [1882]","id":1882},{"lat":41.69385591952927,"lon":44.84627603463585,"name":"ყარყარაშვილის ქუჩა #80 - [1883]","id":1883},{"lat":41.69180595846864,"lon":44.84855902848886,"name":"გრიგოლ მათიაშვილის ქუჩა - [1884]","id":1884},{"lat":41.758441636367095,"lon":44.77256030340287,"name":"პაიჭაძის ქუჩა - [3659]","id":3659},{"lat":41.75818534881162,"lon":44.77220049834924,"name":"პაიჭაძის ქუჩა - [3658]","id":3658},{"lat":41.698741000004496,"lon":44.88859200000034,"name":"დამპალოს სასაფლაო - [2526]","id":2526},{"lat":41.73986277214765,"lon":44.72058323376937,"name":"ნუცუბიძის IV მ/რ. #43-ის მოპირდაპირედ (მოთხოვნით) - [3657]","id":3657},{"lat":41.73973570808624,"lon":44.72068268499514,"name":"ნუცუბიძის IV მ/რ. #43-ის მიმდებარედ (მოთხოვნით) - [3656]","id":3656},{"lat":41.69043457205772,"lon":45.0075187156316,"name":"ლუდის ქარხანა \"კასტელის\" მოპირდაპირე (მოთხოვნით) - [3655]","id":3655},{"lat":41.69037672396427,"lon":45.00716049260036,"name":"ლუდის ქარხანა \"კასტელი\" (მოთხოვნით) - [3654]","id":3654},{"lat":41.75517282268977,"lon":44.766075218780614,"name":"ვაშლიჯვრის დასახლება - [3653]","id":3653},{"lat":41.75102125371802,"lon":44.76321041801065,"name":"ვაშლიჯვრის დასახლების III ზონა #7ა  - [3652]","id":3652},{"lat":41.7141597209784,"lon":44.79720937953879,"name":"წინამძღვრიშვილის ქ.#122-ის მიმდებარედ (მოთხოვნით) - [3670]","id":3670},{"lat":41.71272142638235,"lon":44.79827732040021,"name":"წინამძღვრიშვილის ქ.#106-ის მიმდებარედ (მოთხოვნით) - [3671]","id":3671},{"lat":41.72475340503347,"lon":44.74558456789476,"name":"გაბაშვილის ქუჩა #5 - [2927]","id":2927},{"lat":41.710975075584926,"lon":44.79949862720897,"name":"წინამძღვრიშვილის ქ.#92-ის მიმდებარედ (მოთხოვნით) - [3672]","id":3672},{"lat":41.708834546850035,"lon":44.80106602519797,"name":"წინამძღვრიშვილის ქ.#76-ის მიმდებარედ - [3673]","id":3673},{"lat":41.68412200000649,"lon":44.893680000000316,"name":"ქიზიყის ქუჩა #5 - [2929]","id":2929},{"lat":41.698441818735134,"lon":44.842078484742274,"name":"უშაკოვის ქუჩა #15 - [1878]","id":1878},{"lat":41.698435000004515,"lon":44.84008400000047,"name":"ყვარლის ქუჩა - [1879]","id":1879},{"lat":41.69694302896944,"lon":44.844606714230466,"name":"ტვიშის ქუჩა #5 - [1876]","id":1876},{"lat":41.65925501897632,"lon":44.90377513299611,"name":"ინდივიდუალური დასახლება #18-ის მოპირდაპირედ გარდაბნის გზატკეცილზე - [2920]","id":2920},{"lat":41.69810024804494,"lon":44.84347529557365,"name":"უშაკოვის ქუჩა #8 - [1877]","id":1877},{"lat":41.69398867792969,"lon":44.846280326426715,"name":"ყარყარაშვილის ქუჩა #73 - [1874]","id":1874},{"lat":41.695046081021296,"lon":44.845041244251334,"name":"#103 საჯარო სკოლა - [1875]","id":1875},{"lat":41.69025834037523,"lon":44.85045950450738,"name":"ყარყარაშვილის ქუჩა #25 - [1872]","id":1872},{"lat":41.69215753087519,"lon":44.848332367363994,"name":"კაკაბეთის ქუჩა - [1873]","id":1873},{"lat":41.68844489781497,"lon":44.85175544526201,"name":"#74 საჯარო სკოლა - [1871]","id":1871},{"lat":41.697640107789525,"lon":44.840986678882324,"name":"ყვარელის ქუჩა #114 - [1880]","id":1880},{"lat":41.78088227900181,"lon":44.83009870800334,"name":"მუხიანის IV ბ მ/რ, #35ა კორპ-ს მოპირდაპირედ - [3668]","id":3668},{"lat":41.78099653646654,"lon":44.83014376083651,"name":"მუხიანის IV ბ მ/რ (#35ა კორპ) - [3667]","id":3667},{"lat":41.71529673034933,"lon":44.7963925659287,"name":"წინამძღვრიშვილის ქ.#132-ის მიმდებარედ (მოთხოვნით) - [3669]","id":3669},{"lat":41.80292367404712,"lon":44.8147399944204,"name":"თიანეთის გზატკეცილი #22 - [3664]","id":3664},{"lat":41.78877895589312,"lon":44.8021808496164,"name":"ქერჩის ქუჩა #1 - [3663]","id":3663},{"lat":41.79546342492762,"lon":44.81315308757956,"name":"136-ე საშუალო სკოლა (მოსულიშვილის ქ) - [3666]","id":3666},{"lat":41.79258914607001,"lon":44.813449076578564,"name":"ახმეტელის თეატრი - [3665]","id":3665},{"lat":41.72697800000061,"lon":44.71865700000087,"name":"ბედიას ქუჩა #12ა - [1410]","id":1410},{"lat":41.72691600000055,"lon":44.71884800000087,"name":"ბედიას ქუჩა #12ა-ს მოპირდაპირედ - [1411]","id":1411},{"lat":41.729996000000135,"lon":44.758028000000756,"name":"ბუდაპეშტის ქუჩა - [942]","id":942},{"lat":41.73006700000018,"lon":44.75714300000075,"name":"ბუდაპეშტის ქუჩა - [941]","id":941},{"lat":41.72726673990073,"lon":44.72117732596389,"name":"ბედიას ქუჩა #16 - [1412]","id":1412},{"lat":41.730483384576665,"lon":44.76274697230413,"name":"ტაშკენტის ქუჩა - [940]","id":940},{"lat":41.727392904650024,"lon":44.72127396625394,"name":"ბედიას ქუჩა #10 - [1413]","id":1413},{"lat":41.73357499999965,"lon":44.72465200000085,"name":"ნუცუბიძის IV მ/რ #28-ის მოპირდაპირედ - [3280]","id":3280},{"lat":41.729505174071036,"lon":44.75254724148698,"name":"ნუცუბიძის ქუჩა #22 - [946]","id":946},{"lat":41.73354609947028,"lon":44.72850133549679,"name":"#6 საბავშვო ბაღი - [3281]","id":3281},{"lat":41.75167599999719,"lon":44.789600000000654,"name":"კ/თ საქართველო - [1419]","id":1419},{"lat":41.72962867569013,"lon":44.75228616350215,"name":"ნუცუბიძის ქუჩა #13 - [945]","id":945},{"lat":41.73416399999958,"lon":44.730543000000836,"name":"ნუცუბიძის II მ/რ IV კვ. #5  - [3282]","id":3282},{"lat":41.72568674612426,"lon":44.71976090228096,"name":"ბედიას ქუჩა - [1416]","id":1416},{"lat":41.729897000000214,"lon":44.75504100000075,"name":"საბურთალოს სატელეფონო კვანძი - [944]","id":944},{"lat":41.73373999999962,"lon":44.732396000000826,"name":"წმინდა მიქაელის სახელობის ეკლესია - [3283]","id":3283},{"lat":41.72555003399242,"lon":44.720084012995066,"name":"ბედიას ქუჩა - [1417]","id":1417},{"lat":41.72973000000019,"lon":44.75498100000076,"name":"საბურთალოს სატელეფონო კვანძი - [943]","id":943},{"lat":41.73263999999977,"lon":44.73260800000083,"name":"ნუცუბიძის IV მ/რ, #1  - [3284]","id":3284},{"lat":41.72897200000031,"lon":44.74780400000078,"name":"ნუცუბიძის ქუჩა #38 - [949]","id":949},{"lat":41.731281867007944,"lon":44.7283538090532,"name":"ნუცუბიძის IV მ/რ. #12 - [3286]","id":3286},{"lat":41.72940368937575,"lon":44.750333714288466,"name":"ნუცუბიძის ქუჩა#21 - [948]","id":948},{"lat":41.73303299999975,"lon":44.72080700000087,"name":"#201 საბავშვო ბაღი - [3287]","id":3287},{"lat":41.72930800000023,"lon":44.75072500000077,"name":"ნუცუბიძის ქუჩა #28 - [947]","id":947},{"lat":41.7333439999997,"lon":44.719725000000864,"name":"ნუცუბიძის V მ/რ #8 - [3288]","id":3288},{"lat":41.73473499999947,"lon":44.72233300000086,"name":"ნუცუბიძის IV მ/რ #22-ის მოპირდაპირედ - [3279]","id":3279},{"lat":41.736359999999216,"lon":44.72068900000087,"name":"ნუცუბიძის IV მ/რ #20  - [3278]","id":3278},{"lat":41.64175700001228,"lon":44.91370700000024,"name":"რუსთავის გზატკეცილი # 65 - [2950]","id":2950},{"lat":41.70678500000334,"lon":44.904796000000275,"name":"ვარკეთილის მეურნეობა (სამგორის ქ-ის გადაკვეთასთან) - [2951]","id":2951},{"lat":41.73480599999948,"lon":44.81574000000056,"name":"წერონისის ქ. #126-ის პირდაპირ - [1822]","id":1822},{"lat":41.73492007512683,"lon":44.8138631334203,"name":"ბუგეულის ქუჩა - [1821]","id":1821},{"lat":41.73235804593333,"lon":44.824822266456046,"name":"სამღერეთის ქუჩა #38 - [1825]","id":1825},{"lat":41.733928461254955,"lon":44.82495397882396,"name":"კლდეკარის ქუჩა - [1824]","id":1824},{"lat":41.73423399999957,"lon":44.82195000000055,"name":"წერონისის ქუჩა #164 - [1823]","id":1823},{"lat":41.72952022025355,"lon":44.80834593578254,"name":"#8 საჯარო სკოლა  - [1829]","id":1829},{"lat":41.72965146640104,"lon":44.81188134250799,"name":"ურიდიას ქუჩა #137-ის მოპირდაპირედ - [1828]","id":1828},{"lat":41.729666186666364,"lon":44.815006858530566,"name":"ზაქარიაძის ქუჩა - [1827]","id":1827},{"lat":41.749964239340834,"lon":44.78075230428303,"name":"მ/ს დიდუბე - [1420]","id":1420},{"lat":41.74981369463328,"lon":44.78128267389439,"name":"მ/ს დიდუბე - [1422]","id":1422},{"lat":41.7499285260785,"lon":44.78543728126761,"name":"ჭყონდიდელის ქუჩა - [1423]","id":1423},{"lat":41.7245280000009,"lon":44.72947100000083,"name":"მარიჯანის ქუჩა  # 12 -ის მოპირდაპირედ - [3290]","id":3290},{"lat":41.75011886369235,"lon":44.78520542478409,"name":"ჭყონდიდელის ქუჩა - [1424]","id":1424},{"lat":41.75064699999729,"lon":44.79047700000066,"name":"კ/თ საქართველო (მოპირდაპირედ) - [1425]","id":1425},{"lat":41.72426726734432,"lon":44.77179202020277,"name":"წმინდა კვირიკეს და ივლიტას სახელობის ეკლესია - [931]","id":931},{"lat":41.75355899999692,"lon":44.78920100000066,"name":"გვაზაურის ქუჩა - [1426]","id":1426},{"lat":41.722211978953446,"lon":44.77360267556237,"name":"ცინცაძის ქუჩა  - [930]","id":930},{"lat":41.7541439999968,"lon":44.78857500000067,"name":"ახალდაბის ქუჩა - [1427]","id":1427},{"lat":41.75915899999612,"lon":44.78799300000067,"name":"ქართულ ამერიკული უმაღლესი სკოლა (მოპირდაპირედ) - [1428]","id":1428},{"lat":41.723981942117184,"lon":44.77166155943305,"name":"პეკინის ქუჩა #24 - [932]","id":932},{"lat":41.75522691278113,"lon":44.76114699794208,"name":"გოძიაშვილის ქუჩა #24 - [3295]","id":3295},{"lat":41.75822199999626,"lon":44.788326000000666,"name":"ქართულ ამერიკული უმაღლესი სკოლა - [1429]","id":1429},{"lat":41.73852899999896,"lon":44.76968800000071,"name":"გაგარინის ქუჩა #2 - [3292]","id":3292},{"lat":41.733317999999706,"lon":44.76886400000072,"name":"ოჩამჩირის ქუჩა - [3293]","id":3293},{"lat":41.73107400000006,"lon":44.76702400000072,"name":"ჟვანიას მოედანი - [937]","id":937},{"lat":41.76396899999548,"lon":44.77534800000071,"name":"დიღომი IV კვ. #5 - [3298]","id":3298},{"lat":41.72711500000057,"lon":44.76843500000071,"name":"პეკინის გამზირი #36 - [936]","id":936},{"lat":41.769057999994814,"lon":44.77480300000071,"name":"ტელეკომპანია იმედი - [3299]","id":3299},{"lat":41.73070701111529,"lon":44.76346873698921,"name":"ტაშკენტის ქუჩა - [939]","id":939},{"lat":41.73091000000003,"lon":44.76693500000072,"name":"ჟვანიას მოედანი - [938]","id":938},{"lat":41.72235427121887,"lon":44.773866912478695,"name":"ცინცაძის ქუჩა  - [929]","id":929},{"lat":41.68691802226581,"lon":45.00107944579515,"name":"ლოჭინის დასახლება #1 - [2940]","id":2940},{"lat":41.72938400000026,"lon":44.73513500000082,"name":"#171 საჯარო სკოლა - [3289]","id":3289},{"lat":41.813383999988645,"lon":44.808960000000624,"name":"26-მაისის ქუჩა - [2943]","id":2943},{"lat":41.67584700000758,"lon":44.81329700000055,"name":"ორთაჭალის ქუჩა #90ა - [2944]","id":2944},{"lat":41.73031107315069,"lon":44.8188754961005,"name":"ურიდიას ქუჩა #193 - [1811]","id":1811},{"lat":41.72959602520394,"lon":44.81508875878421,"name":"ზაქარიაძის ქუჩა - [1810]","id":1810},{"lat":41.80552599998974,"lon":44.77074300000075,"name":"აგრარული უნივერსიტეტი (ეკლესია) - [2942]","id":2942},{"lat":41.73194099999988,"lon":44.827447000000525,"name":"სამღერეთის ქუჩა #60 - [1813]","id":1813},{"lat":41.57483400002137,"lon":44.93587500000017,"name":"სასჯელაღსრულების დაწესებულება - [2947]","id":2947},{"lat":41.73027500000011,"lon":44.82923100000053,"name":"სამღერეთის ქუჩა - [1812]","id":1812},{"lat":41.583529000020214,"lon":44.9236020000002,"name":"კრწანისის სასწავლო ცენტრი - [2948]","id":2948},{"lat":41.73447824856798,"lon":44.820485151586894,"name":"წერონისის ქუჩა #160 - [1815]","id":1815},{"lat":41.7340289999996,"lon":44.717492000000874,"name":"ნუცუბიძის V მ/რ #11  - [2945]","id":2945},{"lat":41.73406865416647,"lon":44.82505041647238,"name":"წერონისის ქუჩა #188 - [1814]","id":1814},{"lat":41.73489499999947,"lon":44.81611300000056,"name":"მაჩხაანის ქუჩა - [1816]","id":1816},{"lat":41.61093419581445,"lon":44.90071856152469,"name":"სოფელი კრწანისის საჯარო სკოლა - [2949]","id":2949},{"lat":41.77013483952281,"lon":44.79251173172059,"name":"გურამიშვილის გამზირი #68/72 - [1436]","id":1436},{"lat":41.7009680000042,"lon":44.80296600000059,"name":"მშრალი ხიდი (მოთხოვნით) - [920]","id":920},{"lat":41.77006299999464,"lon":44.792825000000654,"name":"გურამიშვილის გამზირი #23 - [1437]","id":1437},{"lat":41.76594499999525,"lon":44.79030300000066,"name":"მ/ს ღრმაღელე - [1434]","id":1434},{"lat":41.76617999999517,"lon":44.79004100000066,"name":"მ/ს ღრმაღელე - [1435]","id":1435},{"lat":41.76310099999557,"lon":44.78860900000067,"name":"ლიახვის ქუჩა - [1432]","id":1432},{"lat":41.76294268327138,"lon":44.78886379448048,"name":"ლიახვის ქუჩა - [1433]","id":1433},{"lat":41.756363999996566,"lon":44.78833300000067,"name":"გურამიშვილის გამზირი #11 - [1430]","id":1430},{"lat":41.7559629999966,"lon":44.78803300000067,"name":"გურამიშვილის გამზირი #11-ის მოპირდაპირედ - [1431]","id":1431},{"lat":41.72105800000137,"lon":44.77525300000068,"name":"ბუკიას ბაღის მოპირდაპირედ - [928]","id":928},{"lat":41.71949700000162,"lon":44.77692500000069,"name":"პეკინის გამზირი #3 - [926]","id":926},{"lat":41.717803528745755,"lon":44.777912881027824,"name":"26 მაისის მოედანი - [925]","id":925},{"lat":41.7159530925668,"lon":44.77860527515411,"name":"საზოგადოებრივი მაუწყებელი - [924]","id":924},{"lat":41.77254299999435,"lon":44.794102000000656,"name":"#114 საჯარო სკოლა - [1438]","id":1438},{"lat":41.78297499999283,"lon":44.79837100000064,"name":"მ/ს სარაჯიშვილი - [1439]","id":1439},{"lat":41.79605167262491,"lon":44.76995916985258,"name":"მუხათგვერდის ასახვევი - [1844]","id":1844},{"lat":41.79928299999065,"lon":44.77108200000074,"name":"დიღმის სასწავლო მეურნეობა - [1843]","id":1843},{"lat":41.69057200000561,"lon":44.8338150000005,"name":"დოესის ქუჩა - [1842]","id":1842},{"lat":41.691163364059456,"lon":44.8366090218988,"name":"ბუშის ქუჩა #24 - [1841]","id":1841},{"lat":41.69030600000564,"lon":44.84143000000047,"name":"ბუშის ქუჩა #78 - [1840]","id":1840},{"lat":41.70533237413923,"lon":44.800470633363794,"name":"დავით აღმაშენებლის გამზ. #41/40 (მოთხოვნით) - [918]","id":918},{"lat":41.70311756065434,"lon":44.80395262167331,"name":"დავით აღმაშენებლის გამზ. #2/8 (ზაარბრიუკენის მ-ნი) - [919]","id":919},{"lat":41.77510723899725,"lon":44.79483473476612,"name":"მ/ს გურამიშვილი - [1440]","id":1440},{"lat":41.720067275547294,"lon":44.76379806395725,"name":"ბახტრიონის ქუჩა #24 - [1849]","id":1849},{"lat":41.72047800000147,"lon":44.76774300000071,"name":"ბახტრიონი - [1848]","id":1848},{"lat":41.720881080271376,"lon":44.769747294187745,"name":"ქვემო ბახტრიონი - [1847]","id":1847},{"lat":41.720758457198876,"lon":44.76957786664907,"name":"ქვემო ბახტრიონი - [1846]","id":1846},{"lat":41.721363000001375,"lon":44.77386000000069,"name":"ბახტრიონის ქუჩა #7 - [1845]","id":1845},{"lat":41.78415699999272,"lon":44.80933400000061,"name":"#154 საჯარო სკოლა - [1445]","id":1445},{"lat":41.780925661039994,"lon":44.81169339262538,"name":"ლეკიშვილის ქუჩა - [1446]","id":1446},{"lat":41.777429425265716,"lon":44.816372598765625,"name":"ზღვის უბნის III მ/რ II კვ. #23-ის მოპირდაპირედ - [1447]","id":1447},{"lat":41.77707399999368,"lon":44.82168500000057,"name":"#159  საჯარო სკოლა - [1448]","id":1448},{"lat":41.77485699999402,"lon":44.79507000000065,"name":"მ/ს გურამიშვილი - [1441]","id":1441},{"lat":41.77810499999352,"lon":44.79597500000065,"name":"გურამიშვილის გამზირი #39ვ - [1442]","id":1442},{"lat":41.785376999992515,"lon":44.805839000000624,"name":"სასამართლო - [1443]","id":1443},{"lat":41.784695999992636,"lon":44.80774300000061,"name":"ზღვის უბნის IV მ/რ #5-ის მოპირდაპირედ - [1444]","id":1444},{"lat":41.70989575523549,"lon":44.79695524850668,"name":"მარჯანიშვილის ქუცა - [915]","id":915},{"lat":41.71366953212812,"lon":44.79417836737458,"name":"ტოვსტონოგოვის ქუჩა - [914]","id":914},{"lat":41.70659018520385,"lon":44.79944671525944,"name":"მიხაილოვის საავადმყოფო - [917]","id":917},{"lat":41.70859400000309,"lon":44.79791900000062,"name":"პეტერბურგის ქუჩა - [916]","id":916},{"lat":41.78429899999271,"lon":44.82654000000055,"name":"დუმბაძის გამზირი - [1449]","id":1449},{"lat":41.7230600000011,"lon":44.791343000000644,"name":"დინამო არენა - [911]","id":911},{"lat":41.72692600000061,"lon":44.78883900000066,"name":"მ/ს წერეთელი - [910]","id":910},{"lat":41.71867485354777,"lon":44.790457577528265,"name":"აღმაშენებლის გამზირი - [913]","id":913},{"lat":41.720751251801076,"lon":44.788933903925845,"name":"მუსიკალური კომედიის და დრამის თეატრი - [912]","id":912},{"lat":41.72874952268911,"lon":44.80404903432471,"name":"მანაგაძის ქუჩა - [1831]","id":1831},{"lat":41.729061485529876,"lon":44.80623782085075,"name":"მუშათა ქუჩა - [1830]","id":1830},{"lat":41.72753600000051,"lon":44.79962200000062,"name":"ხიმშიაშვილის ქუჩა - [1833]","id":1833},{"lat":41.72814300000041,"lon":44.8018210000006,"name":"ჩხიკვაძის ქუჩა - [1832]","id":1832},{"lat":41.732855910413264,"lon":44.78439249051297,"name":"სს თელასი - [908]","id":908},{"lat":41.73016105921978,"lon":44.78608839934305,"name":"დიდუბის პანთეონი - [909]","id":909},{"lat":41.66948100000851,"lon":44.9653610000001,"name":"აეროპორტი - [1838]","id":1838},{"lat":41.78490474549143,"lon":44.82989480686464,"name":"მუხიანის IV ა მ/რ #5 - [1450]","id":1450},{"lat":41.690454000005566,"lon":44.8339650000005,"name":"დოესის ქუჩა - [1834]","id":1834},{"lat":41.68006300000704,"lon":44.95787500000012,"name":"ტერმინალი გაკო - [1837]","id":1837},{"lat":41.680184000007024,"lon":44.95748500000012,"name":"ტერმინალი გაკო - [1836]","id":1836},{"lat":41.721516205500926,"lon":44.73371434112386,"name":"ქავთარაძის ქუჩა # 27 - [989]","id":989},{"lat":41.721236982321656,"lon":44.730833595418865,"name":"#122 საჯარო სკოლა - [987]","id":987},{"lat":41.70035700000425,"lon":44.77287600000068,"name":"ზემო ვერა - [3240]","id":3240},{"lat":41.72148350382434,"lon":44.73086165378548,"name":"#122 საჯარო სკოლა - [988]","id":988},{"lat":41.710308000002875,"lon":44.73002300000082,"name":"# საჯარო სკოლა - [3242]","id":3242},{"lat":41.70291204576381,"lon":44.70077756138457,"name":"წმინდა მარიამის სახელობის ეკლესია - [3244]","id":3244},{"lat":41.71311900000246,"lon":44.716268000000866,"name":"სტუდქალაქი კორპუსი №4 - [3243]","id":3243},{"lat":41.720073000001534,"lon":44.71845700000087,"name":"ქავთარაძის ქუჩა #1 - [981]","id":981},{"lat":41.72029468290581,"lon":44.72130872488804,"name":"ქავთარაძის ქუჩა #11 - [982]","id":982},{"lat":41.72055481710963,"lon":44.723827949744425,"name":"#35 საჯარო სკოლა  - [985]","id":985},{"lat":41.720675000001414,"lon":44.72356500000085,"name":"#35 საჯარო სკოლა  - [986]","id":986},{"lat":41.720205795294284,"lon":44.718378407741014,"name":"ქავთარაძის ქუჩა #2 - [983]","id":983},{"lat":41.720440579614994,"lon":44.72113181291753,"name":"ქავთარაძის ქუჩა #10  - [984]","id":984},{"lat":41.64367400001204,"lon":44.8946430000003,"name":"ზემო ფონიჭალა #23 - [3234]","id":3234},{"lat":41.64626100001163,"lon":44.90243000000028,"name":"ზემო ფონიჭალა #5 - [3235]","id":3235},{"lat":41.7835239999928,"lon":44.79910800000064,"name":"მ/ს სარაჯიშვილი - [2995]","id":2995},{"lat":41.643971000011966,"lon":44.89462300000031,"name":"ზემო ფონიჭალა #19 - [3236]","id":3236},{"lat":41.81066833944826,"lon":44.71226787715587,"name":"მუხათგვერდის სასაფლაო - [2101]","id":2101},{"lat":41.697602000004636,"lon":44.809056000000574,"name":"ბარათაშვილის ძეგლი (მოპირდაპირედ) - [2994]","id":2994},{"lat":41.643615000011984,"lon":44.8937930000003,"name":"ზემო ფონიჭალა #20 - [3237]","id":3237},{"lat":41.68509000000629,"lon":44.77705000000066,"name":"თბილისის ქუჩა #3 - [2108]","id":2108},{"lat":41.82577499998692,"lon":44.74842300000083,"name":"აგრარული რადიოლოგიისა და ეკოლოგიის ინსტიტუტი - [2997]","id":2997},{"lat":41.68805900000595,"lon":44.79431500000061,"name":"ამაღლების ქუჩა №45 მოპირდაპირედ - [3238]","id":3238},{"lat":41.813338999988645,"lon":44.80868700000062,"name":"სოფელი დიდი გლდანი  - [2996]","id":2996},{"lat":41.77204399999438,"lon":44.74027500000082,"name":"წმინდა გიორგის უბანი  - [2998]","id":2998},{"lat":41.718262904554244,"lon":44.717744103024685,"name":"ფიზიკის კვლევითი ინსტიტუტი - [976]","id":976},{"lat":41.68794700000593,"lon":44.69449800000093,"name":"გურამიშვილის ქუჩა #5-ის მოპირდაპირედ - [3251]","id":3251},{"lat":41.71744000000184,"lon":44.71986999999914,"name":"უნივერსიტეტის  მაღლივი კორპუსი - [977]","id":977},{"lat":41.6907460000055,"lon":44.69663200000091,"name":"სტატისტიკის დეპარტამენტი - [3250]","id":3250},{"lat":41.69086200000548,"lon":44.69663000000091,"name":"სტატისტიკის დეპარტამენტი - [3254]","id":3254},{"lat":41.686739027252976,"lon":44.69642985900553,"name":"რუსთაველის ქუჩა #14-ის მოპირდაპირედ - [3253]","id":3253},{"lat":41.688720000005816,"lon":44.68929200000093,"name":"გურამიშვილის ქუჩა #18-ის მოპირდაპირედ - [3252]","id":3252},{"lat":41.72218400000125,"lon":44.70304900000091,"name":"პოლიტკოვსკაიას ქუჩა #16 - [970]","id":970},{"lat":41.7207036335286,"lon":44.70873143378256,"name":"სოხუმის სახელმწიფო უნივერსიტეტი - [972]","id":972},{"lat":41.72048174083978,"lon":44.71132202011058,"name":"უნივერსიტეტი იბერია - [973]","id":973},{"lat":41.720125599581976,"lon":44.71449923492387,"name":"პოლიტკოვსკაიას ქუჩა #6 - [974]","id":974},{"lat":41.72027052497644,"lon":44.71798515888382,"name":"ქავთარაძის ქუჩა  - [975]","id":975},{"lat":41.72012600000156,"lon":44.81622400000056,"name":"9 ძმის ქუჩა #94ა - [2113]","id":2113},{"lat":41.69898300000441,"lon":44.7021350000009,"name":"ჭავჭაძის ქუჩა - [3247]","id":3247},{"lat":41.69829100000448,"lon":44.701270000000896,"name":"არსენას ქუჩა - [3248]","id":3248},{"lat":41.79649199999105,"lon":44.81103400000061,"name":"#89 ბაგა ბაღი - [2115]","id":2115},{"lat":41.71051200000283,"lon":44.72762400000082,"name":"წყნეთის გზატკეცილი #41 - [3245]","id":3245},{"lat":41.72004900000156,"lon":44.818443000000556,"name":"სამურზაყანოს ქუჩა #27 - [2114]","id":2114},{"lat":41.708497772125405,"lon":44.73373234484602,"name":"უჩანეიშვილის II ჩიხი - [3246]","id":3246},{"lat":41.7212269173441,"lon":44.774651706721144,"name":"ბუკიას ბაღი - [2119]","id":2119},{"lat":41.69331600000514,"lon":44.694506000000914,"name":"წყნეთი ბ ზონა - [3249]","id":3249},{"lat":41.684272098099406,"lon":44.77900800265393,"name":"ოქროყანის გადასახვევი - [2118]","id":2118},{"lat":41.70954300000295,"lon":44.741032000000786,"name":"ვაკის სასაფლაო - [2132]","id":2132},{"lat":41.73273599999979,"lon":44.75456100000076,"name":"ბერიტაშვილის ქუჩა #109-ის მოპირდაპირედ - [3264]","id":3264},{"lat":41.73266499999982,"lon":44.75451700000075,"name":"ბერიტაშვილის ქუჩა #109  - [3263]","id":3263},{"lat":41.72167300000134,"lon":44.70460800000091,"name":"სოხუმის უნივერსიტეტის ფილიალი - [969]","id":969},{"lat":41.68927687009979,"lon":44.82049726064948,"name":"ქეთევან წამებულის გამზირი #26 - [2130]","id":2130},{"lat":41.7270200000006,"lon":44.7716820000007,"name":"იოსებიძის ქუჩა - [3266]","id":3266},{"lat":41.77897098460187,"lon":44.823856897522795,"name":"მუხიანის გადასახვევი - [2131]","id":2131},{"lat":41.72789843876597,"lon":44.77244138051075,"name":"#62 საჯარო სკოლა - [3265]","id":3265},{"lat":41.72028300000146,"lon":44.71448700000087,"name":"პოლიტკოვსკაიას ქუჩა #6-ის მოპირდაპირედ - [967]","id":967},{"lat":41.73572999999941,"lon":44.74708200000079,"name":"ლისის ტბის დასახლება II - [3260]","id":3260},{"lat":41.72063530759415,"lon":44.711243606989584,"name":"უნივერსიტეტი იბერია - [968]","id":968},{"lat":41.73513899999948,"lon":44.748927000000776,"name":"ლისის ტბის დასახლება I - [3262]","id":3262},{"lat":41.720775000001375,"lon":44.708810000000895,"name":"სოხუმის სახელმწიფო უნივერსიტეტი - [966]","id":966},{"lat":41.73521399999943,"lon":44.749042000000784,"name":"ლისის ტბის დასახლება I - [3261]","id":3261},{"lat":41.72581447954124,"lon":44.72247071532559,"name":"შავიშვილის ქუჩა - [963]","id":963},{"lat":41.725317000000736,"lon":44.717492000000874,"name":"სანდრო ეულის ქუჩა - [964]","id":964},{"lat":41.726206007454344,"lon":44.72646710438576,"name":"ნუცუბიძის ქუჩა II-IV მ/რ - [961]","id":961},{"lat":41.72543600000077,"lon":44.71737900000088,"name":"სანდრო ეულის ქუჩა - [962]","id":962},{"lat":41.72640063211997,"lon":44.72698579549614,"name":"ნუცუბიძის ქუჩა II-IV მ/რ - [960]","id":960},{"lat":41.72956924974515,"lon":44.81196374158817,"name":"ურიდიას ქუჩა #137 - [1809]","id":1809},{"lat":41.72896500000031,"lon":44.80632800000059,"name":"მუშათა ქუჩა - [1807]","id":1807},{"lat":41.729513126570204,"lon":44.808722285252315,"name":"კახიანის ქუჩა - [1808]","id":1808},{"lat":41.72806500000045,"lon":44.80185700000061,"name":"ჩხიკვაძის ქუჩა - [1805]","id":1805},{"lat":41.72864273207528,"lon":44.80418837426957,"name":"მანაგაძის ქუჩა - [1806]","id":1806},{"lat":41.708876000002995,"lon":44.711401000000876,"name":"წყნეთის მე-10კმ - [1803]","id":1803},{"lat":41.712516000002516,"lon":44.721020000000856,"name":"სტუდქალაქი კორპუსი №1 - [1804]","id":1804},{"lat":41.69987500000428,"lon":44.705092000000896,"name":"წყნეთი, ამილახვარის ქუჩა #10 - [1801]","id":1801},{"lat":41.70311393264747,"lon":44.70072270817402,"name":"წმინდა მარიამის სახელობის ეკლესია - [1802]","id":1802},{"lat":41.699899000004294,"lon":44.704632000000885,"name":"რუსთაველის და ამილახვრის ქ-ების გადაკვეთა - [1800]","id":1800},{"lat":41.72551503778918,"lon":44.74484749553763,"name":"მ/ს დელისი - [2129]","id":2129},{"lat":41.71792983660093,"lon":44.79033414281265,"name":"კვინიტაძის ქუჩა - [2126]","id":2126},{"lat":41.721776000001306,"lon":44.70451500000091,"name":"სოხუმის უნივერსიტეტის ფილიალი - [3256]","id":3256},{"lat":41.70909300000307,"lon":44.77853000000067,"name":"თბილისის სახელმწიფო უნივერსიტეტი (კორპუსი #1) (მოპირდაპირე) - [2125]","id":2125},{"lat":41.718213455106884,"lon":44.717934660803664,"name":"მაღალი ენერგიების ფიზიკის კვლევითი ინსტიტუტი - [3257]","id":3257},{"lat":41.68746800000601,"lon":44.829180000000505,"name":"#96 საჯარო სკოლა - [2123]","id":2123},{"lat":41.72953500000018,"lon":44.76069500000074,"name":"ბუდაპეშტის ქუჩა #10 - [3259]","id":3259},{"lat":41.7264497607248,"lon":44.728747226908666,"name":"მარიჯანის ქუჩა - [958]","id":958},{"lat":41.775374005912475,"lon":44.7202052876759,"name":"სოფელი დიღომი  - [2141]","id":2141},{"lat":41.731246,"lon":44.72479900000084,"name":"ნუცუბიძის II მ/რ III კვ. #1-ის მოპირდაპირედ - [3277]","id":3277},{"lat":41.72657723135592,"lon":44.72889421004633,"name":"მარიჯანის ქუჩა - [959]","id":959},{"lat":41.75099201687529,"lon":44.9072438369629,"name":"პატარა ლილო - [2142]","id":2142},{"lat":41.720142000001566,"lon":44.763670000000715,"name":"ბახტრიონის ქუჩა #29 - [3276]","id":3276},{"lat":41.70753241389272,"lon":44.89798729332086,"name":"ვარკეთილის მეურნეობა - [2143]","id":2143},{"lat":41.72369700000104,"lon":44.75068100000076,"name":"საბურთალოს ქუჩა # 67 - [3274]","id":3274},{"lat":41.727474520082,"lon":44.71905937858844,"name":"ბედიას ქუჩა #17 - [1406]","id":1406},{"lat":41.72736267876788,"lon":44.73775480699647,"name":"ნუცუბიძის ქუჩა #97-ის მოპირდაპირედ - [954]","id":954},{"lat":41.72344100000105,"lon":44.75085500000077,"name":"კარტოზიას ქუჩა #9 - [3273]","id":3273},{"lat":41.72847268944575,"lon":44.717768037013286,"name":"თავისუფალი უნივერსიტეტი - [1405]","id":1405},{"lat":41.72718325346394,"lon":44.73483325184953,"name":"ნუცუბიძის ქუჩა #123ა - [955]","id":955},{"lat":41.721705000001286,"lon":44.75198400000077,"name":"კარტოზიას ქუჩა #1  - [3272]","id":3272},{"lat":41.72726400000049,"lon":44.71726000000087,"name":"ბედიას ქუჩა #14 - [1408]","id":1408},{"lat":41.726784072019264,"lon":44.73207503476902,"name":"ნუცუბიძის ქუჩა #78 - [956]","id":956},{"lat":41.72741258569555,"lon":44.71898479066166,"name":"ბედიას ქუჩა #17-ის მოპირდაპირედ - [1407]","id":1407},{"lat":41.726897000000584,"lon":44.73188000000083,"name":"ძოწენიძის ქუჩა - [957]","id":957},{"lat":41.72220400000122,"lon":44.7710690000007,"name":"ცინცაძის ქუჩა #8 - [3270]","id":3270},{"lat":41.709913000002956,"lon":44.732733000000806,"name":"წყნეთის გზატკეცილი #12 - [1402]","id":1402},{"lat":41.72909590680859,"lon":44.74702693800121,"name":"ნუცუბიძის ქუჩა #53 - [950]","id":950},{"lat":41.71258500000254,"lon":44.72108300000085,"name":"სტუდქალაქი კორპუსი №1 - [1401]","id":1401},{"lat":41.7285260000004,"lon":44.743066000000795,"name":"თავაძის ქუჩა - [951]","id":951},{"lat":41.706003631561764,"lon":44.73670189911322,"name":"თბილისის წყალი - [1404]","id":1404},{"lat":41.72824600000039,"lon":44.742799000000794,"name":"თავაძის ქუჩა - [952]","id":952},{"lat":41.71009347210379,"lon":44.7309491668053,"name":"ბაგები - [1403]","id":1403},{"lat":41.72746448281674,"lon":44.73765248219565,"name":"ნუცუბიძის ქუჩ #97 - [953]","id":953},{"lat":41.71061300000277,"lon":44.727536000000825,"name":"წყნეთის გზატკეცილი #41 - [1400]","id":1400},{"lat":41.66229169724123,"lon":44.69997282481858,"name":"კოჯრის გზატკ-ის და იუნკერების ქუჩების გადაკვეთა - [2139]","id":2139},{"lat":41.72180475438775,"lon":44.768000444884564,"name":"ცინცაძის ქუჩა #18 - [3269]","id":3269},{"lat":41.788289999992166,"lon":44.769290000000744,"name":"დიდი დიღომი (შესასვლელი) - [2134]","id":2134},{"lat":41.72132900000133,"lon":44.75740600000075,"name":"საირმის გორა - [3267]","id":3267},{"lat":41.7212220000014,"lon":44.76346300000072,"name":"ცინცაძის ქუჩა #30 - [3268]","id":3268},{"lat":41.727541708635584,"lon":44.72561584049343,"name":"ვატიკანის საელჩო - [1297]","id":1297},{"lat":41.72763579234428,"lon":44.725726874270656,"name":"ვატიკანის საელჩო - [1296]","id":1296},{"lat":41.78826733602507,"lon":44.82539334630054,"name":"მუხიანის I მ/რ, #10 - [2787]","id":2787},{"lat":41.781525999993065,"lon":44.76870900000075,"name":"დაცვის პოლიცია - [2785]","id":2785},{"lat":41.71860500000176,"lon":44.791347000000634,"name":"აღმაშენებლის გამზირი - [2786]","id":2786},{"lat":41.733756198788036,"lon":44.727924411291546,"name":"#6 საბავშვო ბაღი - [2791]","id":2791},{"lat":41.76220499999571,"lon":44.77437700000071,"name":"დიღმის ბაზარი - [1269]","id":1269},{"lat":41.720964000001395,"lon":44.79285000000064,"name":"წინამძღვრიშვილი ქუჩა #135 - [1267]","id":1267},{"lat":41.76577399999524,"lon":44.774440000000716,"name":"დიღმის V კვ. #7 - [1268]","id":1268},{"lat":41.7137420879513,"lon":44.747920246030375,"name":"წერეთლის ქუჩა - [1265]","id":1265},{"lat":41.71968778302451,"lon":44.74610358580551,"name":"უნივერსიტეტის ქუჩა - [1266]","id":1266},{"lat":41.724409800133344,"lon":44.73521749152032,"name":"ვაჟა ფშაველას გამზირი #57-ის მოპირდაპირედ - [1262]","id":1262},{"lat":41.787240999992335,"lon":44.820867000000575,"name":"ნონეშვილის ქუჩა - [2396]","id":2396},{"lat":41.72421500000092,"lon":44.731793000000835,"name":"მ/ს ვაჟა-ფშაველა - [1261]","id":1261},{"lat":41.78679599999239,"lon":44.81997200000058,"name":"ნონეშვილის და გობრონიძის ქ-ების გადაკვეთის მოპირდაპირედ   - [2397]","id":2397},{"lat":41.7123451861628,"lon":44.751682390963644,"name":"ვაკის პარკი - [1264]","id":1264},{"lat":41.72489621202923,"lon":44.73823347581429,"name":"ვაჟა ფშაველას გამზირი  #53 - [1263]","id":1263},{"lat":41.7870269999923,"lon":44.82900800000054,"name":"მუხიანის III მ/რ #12  - [2395]","id":2395},{"lat":41.78807128003192,"lon":44.82245557272157,"name":"მუხიანის II მ/რ #4 - [2392]","id":2392},{"lat":41.78779851421357,"lon":44.82851115625533,"name":"მუხიანის II მ/რ #11 - [2393]","id":2393},{"lat":41.7240544074609,"lon":44.7282684124091,"name":"ვაჟა-ფშაველას ძეგლი - [1260]","id":1260},{"lat":41.768162999994914,"lon":44.79581000000064,"name":"#4 საავადმყოფო - [2390]","id":2390},{"lat":41.78706683262698,"lon":44.820940485017225,"name":"ნონეშვილის ქუჩა - [2391]","id":2391},{"lat":41.70689600000335,"lon":44.73558200000081,"name":"ტაძარი - [2799]","id":2799},{"lat":41.726018000000714,"lon":44.77457800000069,"name":"ქალაქ თბილისის მერია - [2794]","id":2794},{"lat":41.72322800000105,"lon":44.725333000000845,"name":"თოფურიას ქუჩა - [1258]","id":1258},{"lat":41.723737314604314,"lon":44.72504302082016,"name":"თოფურიას ქუჩა - [1259]","id":1259},{"lat":41.72300100000114,"lon":44.717954000000866,"name":"ვაჟა-ფშაველას გამზირი #97 - [1254]","id":1254},{"lat":41.722840128319774,"lon":44.72164955488133,"name":"შავიშვილის ქუჩა - [1255]","id":1255},{"lat":41.76973899999471,"lon":44.800227000000625,"name":"თიანეთის ქუჩა - [2389]","id":2389},{"lat":41.72346200000102,"lon":44.72220700000086,"name":"შავიშვილის ქუჩა - [1256]","id":1256},{"lat":41.7734309999942,"lon":44.80319000000062,"name":"ჩარგლის ქუჩა #79-ის მოპირდაპირედ - [2388]","id":2388},{"lat":41.723525980284144,"lon":44.7283373293126,"name":"ვაჟა-ფშაველას გამზირი #78 - [1257]","id":1257},{"lat":41.783223514518106,"lon":44.82572429865736,"name":"გობრონიძის ქუჩა - [2387]","id":2387},{"lat":41.72053229126974,"lon":44.71748902688602,"name":"პოლიტკოვსკაიას ქუჩა  - [1252]","id":1252},{"lat":41.722506000001175,"lon":44.71848700000087,"name":"ვაჟა-ფშაველას გამზ. #104 - [1253]","id":1253},{"lat":41.72945100000024,"lon":44.73145900000083,"name":"ღვთისმშობლის ხარების ეკლესია - [1250]","id":1250},{"lat":41.72936600000026,"lon":44.73316700000082,"name":"ნუცუბიძის III მ/რ II კვ.#5  - [1251]","id":1251},{"lat":41.72832600000039,"lon":44.73369800000082,"name":"ძოწენიძის ქუჩა #4ა - [1244]","id":1244},{"lat":41.72746500000047,"lon":44.73203800000083,"name":"ნუცუბიძის სახელობის სკვერი - [1243]","id":1243},{"lat":41.73019200000014,"lon":44.73552600000082,"name":"#171 საჯარო სკოლა - [1249]","id":1249},{"lat":41.72946200000026,"lon":44.73625600000081,"name":"ნუცუბიძის III მ/რ II კვ. #5 - [1248]","id":1248},{"lat":41.71342279143173,"lon":44.74718598754712,"name":"წერეთლის ქუჩა - [1240]","id":1240},{"lat":41.706813852592695,"lon":44.78593776332388,"name":"ფილარმონია - [1241]","id":1241},{"lat":41.68362468978555,"lon":44.76642748243311,"name":"ოქროყანა - კოტეჯები - [1235]","id":1235},{"lat":41.720759278801694,"lon":44.745690093564455,"name":"ვაკე-საბურთალოს გამგეობა - [1239]","id":1239},{"lat":41.72374470670209,"lon":44.7453448720176,"name":"ყაზბეგის გამზ. და თამარაშვილის ქ-ის გადაკვეთ - [1238]","id":1238},{"lat":41.69351900000516,"lon":44.78246300000065,"name":"მთაწმინდის პარკი - [1220]","id":1220},{"lat":41.689355000005754,"lon":44.790072000000634,"name":"ამაღლების ქუჩა #47 (მოპირდაპირედ) - [1217]","id":1217},{"lat":41.708446029158644,"lon":44.79438550473133,"name":"მარჯანიშვილის თეატრი - [1211]","id":1211},{"lat":41.70853700000311,"lon":44.79491900000063,"name":"მარჯანიშვილის თეატრი - [1213]","id":1213},{"lat":41.745618999998015,"lon":44.77792500000069,"name":"მირცხულავას ქუჩა - [903]","id":903},{"lat":41.743050823189634,"lon":44.77867417693224,"name":"სამტრედიის ქუჩა - [904]","id":904},{"lat":41.73873948222243,"lon":44.78082359954993,"name":"გამოფენა ექსპოჯორჯია (მოპირდაპირედ) - [905]","id":905},{"lat":41.736061200720435,"lon":44.782327255081185,"name":"დ.ბაქრაძის ქუჩა - [906]","id":906},{"lat":41.77243667392826,"lon":44.77477243332188,"name":"მ. იაშვილის სახელობის ბავშვთა ცენტრალური საავადმყოფო - [900]","id":900},{"lat":41.74970799999748,"lon":44.776947000000696,"name":"წერეთლის გამზირი #142 - [902]","id":902},{"lat":41.67866912591058,"lon":44.819753080373125,"name":"კალანდაძის ქუჩა - [2329]","id":2329},{"lat":41.67887779171833,"lon":44.82151475342057,"name":"ორთაჭალის ქუჩა #13 - [2328]","id":2328},{"lat":41.67933885163698,"lon":44.82389314889594,"name":"ორთაჭალის ქუჩა #1 - [2327]","id":2327},{"lat":41.67723600000743,"lon":44.81723200000053,"name":"ორთაჭალის ქუჩა #54-ის მოპირდაპირედ - [2330]","id":2330},{"lat":41.676404000007516,"lon":44.81551100000054,"name":"ორთაჭალის ქუჩა #87 - [2331]","id":2331},{"lat":41.67896229149607,"lon":44.82203653573828,"name":"ორთაჭალის ქუჩა #20 - [2315]","id":2315},{"lat":41.678563688922424,"lon":44.81987270428415,"name":"კალანდაძის ქუჩა - [2314]","id":2314},{"lat":41.677160324781156,"lon":44.81742653878242,"name":"ორთაჭალის ქუჩა #54 - [2313]","id":2313},{"lat":41.676217053124454,"lon":44.81505694312138,"name":"ორთაჭალის ქუჩა #82 - [2312]","id":2312},{"lat":41.71830000000175,"lon":44.80626400000058,"name":"ქურდიანის ქუჩა - [2308]","id":2308},{"lat":41.71873400000171,"lon":44.80842900000058,"name":"მარუაშვილის ქუჩა - [2307]","id":2307},{"lat":41.71799600000178,"lon":44.802975000000615,"name":"მამრაძის ქუჩა - [2309]","id":2309},{"lat":41.72021800000147,"lon":44.80901700000059,"name":"მარუაშვილის ქ. #9 - [2303]","id":2303},{"lat":41.72052400000143,"lon":44.808992000000586,"name":"მარუაშვილის ქ. #34 - [2306]","id":2306},{"lat":41.718182050255905,"lon":44.8062083462203,"name":"ქურდიანის ქუჩა - [2300]","id":2300},{"lat":41.71877700000175,"lon":44.80868800000058,"name":"მარუაშვილის ქუჩა - [2302]","id":2302},{"lat":41.72208000000122,"lon":44.80933600000058,"name":"ტუბდისპანსერი - [2301]","id":2301},{"lat":41.700394928229905,"lon":44.8138733441596,"name":"კუმისის ქუჩა - [2378]","id":2378},{"lat":41.697770710915535,"lon":44.81377717080278,"name":"სამრეკლოს #26 (სამების ეკლესიის მოპირდაპირე) - [2379]","id":2379},{"lat":41.70186600000402,"lon":44.81150500000056,"name":"ბუხაიძის ქუჩა #44 - [2376]","id":2376},{"lat":41.77327399999426,"lon":44.803255000000625,"name":"ჩარგლის ქუჩა #104-ის მოპირდაპირედ - [2382]","id":2382},{"lat":41.72331200000109,"lon":44.74585800000079,"name":"ყაზბეგის გამზირი - [2381]","id":2381},{"lat":41.696422000004794,"lon":44.813789000000554,"name":"მესხიშვილის ქუჩა #44 - [2380]","id":2380},{"lat":41.7843389999927,"lon":44.826360000000555,"name":"დუმბაძის გამზირი - [2386]","id":2386},{"lat":41.78528199999258,"lon":44.82807400000055,"name":"მუხიანის II მ/რ #18 - [2385]","id":2385},{"lat":41.78519699999256,"lon":44.82944900000054,"name":"მუხიანის III მ/რ #1  - [2384]","id":2384},{"lat":41.72727800000054,"lon":44.7747420000007,"name":"ბაქტერეოფაგი  - [2365]","id":2365},{"lat":41.73059800000009,"lon":44.773091000000704,"name":"გოთუას ქუჩა #16ა-ს მოპირდაპირედ - [2366]","id":2366},{"lat":41.73241999999987,"lon":44.77261800000071,"name":"გოთუას ქუჩა #22-ის მოპირდაპირედ - [2367]","id":2367},{"lat":41.733671838456985,"lon":44.7724830819654,"name":"გოთუას ქუჩა #26 - [2368]","id":2368},{"lat":41.732875999999806,"lon":44.772431000000694,"name":"გოთუას ქუჩა #22 - [2369]","id":2369},{"lat":41.72715825016777,"lon":44.77472451810268,"name":"ბაქტერეოფაგი  - [2371]","id":2371},{"lat":41.73072800000002,"lon":44.772928000000704,"name":"გოთუას ქუჩა #16ა - [2370]","id":2370},{"lat":41.704654000003636,"lon":44.80753400000058,"name":"ბუხაიძის ქუჩა #2 - [2373]","id":2373},{"lat":41.70269800000389,"lon":44.810275000000566,"name":"ბუხაიძის ქუჩა #26 - [2375]","id":2375},{"lat":41.70393300124682,"lon":44.80842185072758,"name":"ბუხაიძის ქუჩა #10 - [2374]","id":2374},{"lat":41.697870663024965,"lon":44.81401158907483,"name":"სამრეკლოს #26-ის მოპირდაპირე (სამების ეკლესია) - [2358]","id":2358},{"lat":41.70051163097227,"lon":44.81394886520826,"name":"კუმისის ქუჩა - [2359]","id":2359},{"lat":41.696532000004744,"lon":44.813785000000564,"name":"მესხიშვილის ქუჩა #41 - [2357]","id":2357},{"lat":41.67062900000835,"lon":44.846129000000445,"name":"გორგასლის ქუჩა #113 - [1698]","id":1698},{"lat":41.67095694843512,"lon":44.84308830025315,"name":"გორგასლის ქუჩა #111-ის მოპირდაპირედ - [1699]","id":1699},{"lat":41.65957548046433,"lon":44.891912462804854,"name":"ქვემო ფონიჭალა - [1694]","id":1694},{"lat":41.66008232107298,"lon":44.88801232977919,"name":"გორგასალის ქუჩა #54-54ა - [1695]","id":1695},{"lat":41.665514071237304,"lon":44.8693066992046,"name":"გამწვანება კრწანისი - [1696]","id":1696},{"lat":41.669885838107724,"lon":44.85278662712596,"name":"გორგასლის ქუჩა #115 - [1697]","id":1697},{"lat":41.704750640070586,"lon":44.80756566751611,"name":"ბუხაიძის ქუჩა #3 - [2364]","id":2364},{"lat":41.703886000003735,"lon":44.808564000000565,"name":"ბუხაიძის ქუჩა #15 - [2363]","id":2363},{"lat":41.70275800343813,"lon":44.810311207192164,"name":"ბუხაიძის ქუჩა #27 - [2362]","id":2362},{"lat":41.701802000004086,"lon":44.81171200000056,"name":"ბუხაიძის ქუჩა #44 - [2361]","id":2361},{"lat":41.72800397982589,"lon":44.72870672621595,"name":"მხატვრის ქუჩა - [1299]","id":1299},{"lat":41.728050000000465,"lon":44.72841700000084,"name":"მხატვრის ქუჩა - [1298]","id":1298},{"lat":41.817820999988065,"lon":44.79555600000067,"name":"ავჭალა - [3339]","id":3339},{"lat":41.81587599998832,"lon":44.79651400000067,"name":"#64 საბავშვო ბაღი - [3338]","id":3338},{"lat":41.813457999988685,"lon":44.79775600000067,"name":"ცენტროლიტი - [3337]","id":3337},{"lat":41.82548899998699,"lon":44.788167000000705,"name":"ვარდევანის ქუჩა - [3336]","id":3336},{"lat":41.728406000000376,"lon":44.73370900000082,"name":"ძოწენიძის ქუჩა #4ა - [2289]","id":2289},{"lat":41.79117599999171,"lon":44.80092000000063,"name":"ენისელი - [3342]","id":3342},{"lat":41.77165799999446,"lon":44.81867300000058,"name":"თბილისის ზღვის ასასვლელი  - [3343]","id":3343},{"lat":41.824616999987164,"lon":44.79004000000069,"name":"ჭრებალოს ქუჩა - [3340]","id":3340},{"lat":41.797216999990965,"lon":44.799927000000636,"name":"სარაჯიშვილის გამზ. #23-ის პირდაპირ (მოთხოვნით) - [3341]","id":3341},{"lat":41.77259454100457,"lon":44.774912155049165,"name":"მ. იაშვილის სახელობის ბავშვთა ცენტრალური საავადმყოფო - [889]","id":889},{"lat":41.76914464692686,"lon":44.77491369882632,"name":"ტელეკომპანია იმედი - [888]","id":888},{"lat":41.77856999999349,"lon":44.78165600000069,"name":"ბელიაშვილის ქუჩა #8 - [2294]","id":2294},{"lat":41.78182970620851,"lon":44.774326268048675,"name":"ბავშვთა #2 საავადმყოფო  - [2293]","id":2293},{"lat":41.75693646653429,"lon":44.77394143410514,"name":"ჩალაძეს ქუჩა - [884]","id":884},{"lat":41.76583095193177,"lon":44.77528520984645,"name":"გოგიბერიძისა და ახმეტელის ქ-ების გადაკვეთა - [887]","id":887},{"lat":41.76164099999579,"lon":44.774717000000706,"name":"პაიჭაძის ქუჩა #38/5 - [886]","id":886},{"lat":41.74373980597727,"lon":44.77872114469731,"name":"სამტრედიის ქუჩა - [881]","id":881},{"lat":41.73963623708837,"lon":44.78059628954863,"name":"გამოფენა ექსპოჯორჯია - [880]","id":880},{"lat":41.750209999997416,"lon":44.77738200000069,"name":"წერეთლის გამზირი #138-ის მოპირდაპირედ - [883]","id":883},{"lat":41.74536477745389,"lon":44.77832108270929,"name":"მირცხულავას ქუჩა - [882]","id":882},{"lat":41.77766399999364,"lon":44.80635000000061,"name":"#5 სამშობიარო სახლი - [3349]","id":3349},{"lat":41.76612899999515,"lon":44.79547500000064,"name":"ჩარგლის ქუჩა #21ა - [3348]","id":3348},{"lat":41.697314000004575,"lon":44.70483600000089,"name":"ამილახვრის და აღმაშენებლისს ქ-ების გადაკვეთა - [1799]","id":1799},{"lat":41.772059999994426,"lon":44.81621800000058,"name":"ზღვის უბნის XI მ/რ III კვ. #40-ის მოპირდაპირედ - [3345]","id":3345},{"lat":41.772079999994375,"lon":44.81671900000058,"name":"ზღვის უბნის XI მ/რ III კვ. #40 - [3344]","id":3344},{"lat":41.697074814947335,"lon":44.70061807792252,"name":"მაია წყნეთელის ძეგლი - [1795]","id":1795},{"lat":41.77893299999345,"lon":44.82403500000056,"name":"მუხიანის გადასახვევი - [3347]","id":3347},{"lat":41.697223408989416,"lon":44.700532963022674,"name":"მაია წყნეთელის ძეგლი - [1794]","id":1794},{"lat":41.717904444473895,"lon":44.80294124692101,"name":"მამრაძის ქუჩა - [2299]","id":2299},{"lat":41.776127999993875,"lon":44.81927600000057,"name":"ზღვის უბნის III მ/რ II კვ. #25-ის მოპირდაპირედ - [3346]","id":3346},{"lat":41.76944199999475,"lon":44.79301700000065,"name":"გურამიშვილის გამზირი - [3352]","id":3352},{"lat":41.770415999994626,"lon":44.81770300000057,"name":"თბილისის ზღვა - [3353]","id":3353},{"lat":41.763454999995545,"lon":44.80731200000061,"name":"საგანგებო სიტუაციების დეპარტამენტი - [3354]","id":3354},{"lat":41.73672834151098,"lon":44.78230183198136,"name":"დ.ბაქრაძის ქუჩა - [879]","id":879},{"lat":41.733385076856344,"lon":44.78434639352812,"name":"სს თელასი - [878]","id":878},{"lat":41.77969999999334,"lon":44.80740700000061,"name":"ზღვის უბნის X კვ. #32-ის მოპირდაპირედ - [3350]","id":3350},{"lat":41.73080526736566,"lon":44.785945141234,"name":"დიდუბის პანთეონი - [877]","id":877},{"lat":41.72747300000051,"lon":44.78873200000066,"name":"მ/ს წერეთელი - [876]","id":876},{"lat":41.722942000001176,"lon":44.79171700000064,"name":"ეროვნული სტადიონი - [875]","id":875},{"lat":41.68518619717341,"lon":44.69505609109358,"name":"რუსთაველის ქუჩა #28  - [1783]","id":1783},{"lat":41.73387199999965,"lon":44.81169200000059,"name":"ბახმაროს ქუჩა - [2266]","id":2266},{"lat":41.790333999991816,"lon":44.737533000000845,"name":"დიდი დიღომი III მ/რ #28-ის მოპირდაპირედ - [3314]","id":3314},{"lat":41.685282589731614,"lon":44.69505790578296,"name":"რუსთაველის ქუჩა #28-ის მოპირდაპირედ - [1782]","id":1782},{"lat":41.7338829999996,"lon":44.81406400000057,"name":"ჟღენტის ქუჩა #73 - [2267]","id":2267},{"lat":41.79055799999184,"lon":44.73760100000084,"name":"დიდი დიღომი III მ/რ #28 - [3313]","id":3313},{"lat":41.68876100000583,"lon":44.68892900000093,"name":"გურამიშვილის ქუჩა #18  - [1785]","id":1785},{"lat":41.732962066668904,"lon":44.81834423024583,"name":"# 190 საჯარო სკოლა - [2268]","id":2268},{"lat":41.73273291770909,"lon":44.82083780199011,"name":"სამღერეთის ქუჩა #10 - [2269]","id":2269},{"lat":41.68789064028322,"lon":44.6944031929228,"name":"გურამიშვილის ქუჩა #5  - [1786]","id":1786},{"lat":41.79308800120281,"lon":44.74143700130176,"name":"დიდი დიღომი IV მ/რ #12-ის მოპირდაპირედ - [3317]","id":3317},{"lat":41.688340623495975,"lon":44.69670218651804,"name":"რუსთაველის ქუჩა #10ა - [1789]","id":1789},{"lat":41.79310299999146,"lon":44.74132400000084,"name":"დიდი დიღომი IV მ/რ #12 - [3316]","id":3316},{"lat":41.688307246489664,"lon":44.69661477303043,"name":"რუსთაველის ქუჩა #10ა-ის მოპირდაპირედ - [1788]","id":1788},{"lat":41.79252499999153,"lon":44.738347000000836,"name":"დიდი დიღომი IV მ/რ #25-ის მოპირდაპირედ - [3315]","id":3315},{"lat":41.73247260916814,"lon":44.823433891912934,"name":"სამღერეთის ქუჩა #26 - [2270]","id":2270},{"lat":41.72916022744598,"lon":44.82608035228566,"name":"ხუდადოვის და II რეხის ქ-ების გადაკვეთის მოპირდაპირედ - [2272]","id":2272},{"lat":41.73184299999993,"lon":44.82745800000054,"name":"სამღერეთის ქუჩა #60 - [2271]","id":2271},{"lat":41.791960999991595,"lon":44.75527200000078,"name":"პეტრიწის ქუჩა - [3320]","id":3320},{"lat":41.789074999992025,"lon":44.75525600000079,"name":"პეტრე იბერისა და გიორგი ბრწყინვალეს გადაკვეთა - [3321]","id":3321},{"lat":41.69434955588461,"lon":44.694180122514204,"name":"დავით აღმაშენებლის სახელობის ეკლესია - [1790]","id":1790},{"lat":41.72891300000029,"lon":44.820457000000545,"name":"უიარაღოს ქუჩა #68 - [2273]","id":2273},{"lat":41.69437258428607,"lon":44.69428580198359,"name":"დავით აღმაშენებლის სახელობის ეკლესია - [1791]","id":1791},{"lat":41.72478782867175,"lon":44.808640009172166,"name":"#5 საჯარო  სკოლა - [2276]","id":2276},{"lat":41.69581600000486,"lon":44.69891200000091,"name":"წყნეთის ცენტრი - [1792]","id":1792},{"lat":41.72542413600623,"lon":44.81157413579156,"name":"ხუდადოვის ქუჩა #76 - [2275]","id":2275},{"lat":41.68063400000691,"lon":44.69275400000091,"name":"ზემო წყნეთი - [1779]","id":1779},{"lat":41.77566129577744,"lon":44.77486103909408,"name":"თბილისის ცენტრალური საავადმყოფო - [890]","id":890},{"lat":41.82836999998659,"lon":44.77272000000075,"name":"სხვიტორის ქუჩა - [3323]","id":3323},{"lat":41.71012600000294,"lon":44.8044990000006,"name":"გრანელის ქუჩა #2 - [1774]","id":1774},{"lat":41.72751600000045,"lon":44.73191700000083,"name":"ნუცუბიძის სახელობის სკვერი - [2279]","id":2279},{"lat":41.80576899998976,"lon":44.72975300000088,"name":"მუხათგვერდის ძმათა სასაფლაო - [3322]","id":3322},{"lat":41.71047800000284,"lon":44.807439000000585,"name":"გრანელის ქუჩა #26 - [1773]","id":1773},{"lat":41.82534299998704,"lon":44.78199400000072,"name":"ანდრონიკაშვილის ქუჩა #111-ის მოპირდაპირედ - [3325]","id":3325},{"lat":41.72519460220393,"lon":44.80509570004206,"name":"ხუდადოვის ქუჩა #36 - [2277]","id":2277},{"lat":41.82822199998661,"lon":44.77291200000075,"name":"სხვიტორის ქუჩა - [3324]","id":3324},{"lat":41.72498792390248,"lon":44.80238508241348,"name":"პრავდას ქუჩა - [2278]","id":2278},{"lat":41.82453499998717,"lon":44.78206400000072,"name":"#48 ბაგა-ბაღი - [3327]","id":3327},{"lat":41.70895700000305,"lon":44.711506000000874,"name":"წყნეთის მე-10კმ - [1778]","id":1778},{"lat":41.82359499998724,"lon":44.78440300000071,"name":"უწერის ქუჩა - [3326]","id":3326},{"lat":41.82323399998735,"lon":44.78413300000071,"name":"ქეთევან წამებულის სახელობის ეკლესია - [3329]","id":3329},{"lat":41.82324899998729,"lon":44.78400100000072,"name":"ქეთევან წამებულის სახელობის ეკლესია - [3328]","id":3328},{"lat":41.80058099999045,"lon":44.822528000000574,"name":"ლომისის წმინდა გიორგის სახელობის ეკლესია - [1775]","id":1775},{"lat":41.71107900000277,"lon":44.80095600000061,"name":"ჯავახიშვილის ქუჩა - [2281]","id":2281},{"lat":41.77996477854726,"lon":44.77471662124703,"name":"ჭიაურელის ქუჩა - [899]","id":899},{"lat":41.68261400000666,"lon":44.69105300000092,"name":"რუსთაველის ქუჩა #35 - [1780]","id":1780},{"lat":41.82468899998708,"lon":44.781923000000724,"name":"#48 ბაგა-ბაღი - [3330]","id":3330},{"lat":41.68249500000664,"lon":44.69107800000093,"name":"რუსთაველის ქუჩა #40 - [1781]","id":1781},{"lat":41.82867199998655,"lon":44.769817000000764,"name":"თბილისის შემოვლითი გზა - [3331]","id":3331},{"lat":41.725982000000684,"lon":44.72261600000086,"name":"შავიშვილის ქუჩა - [2285]","id":2285},{"lat":41.82857899998661,"lon":44.769570000000755,"name":"თბილისის შემოვლითი გზა - [3332]","id":3332},{"lat":41.775503056842496,"lon":44.774775699135546,"name":"თბილისის ცენტრალური საავადმყოფო - [894]","id":894},{"lat":41.778704520666345,"lon":44.77474735066348,"name":"ღუდუშაურის სახელობის კლინიკა - [893]","id":893},{"lat":41.779961508549896,"lon":44.77488640630627,"name":"ჭიაურელის ქუჩა - [892]","id":892},{"lat":41.778799852477036,"lon":44.77484554207976,"name":"ღუდუშაურის სახელობის კლინიკა - [891]","id":891},{"lat":41.754988999996726,"lon":44.7754960000007,"name":"ეკლესია - [898]","id":898},{"lat":41.75758611117229,"lon":44.773011551460506,"name":"პოლიციის სამმართველო - [897]","id":897},{"lat":41.71815709751164,"lon":44.817545104737945,"name":"ასხინის ქუჩა #6 - [2812]","id":2812},{"lat":41.70904900000306,"lon":44.81974100000053,"name":"გუმათის ქუჩა #37/2 - [1765]","id":1765},{"lat":41.71122200000277,"lon":44.820316000000545,"name":"მნათობის ქუჩა - [1766]","id":1766},{"lat":41.724465894579396,"lon":44.76022817067588,"name":"ტანძიის ქუჩა - [2810]","id":2810},{"lat":41.71144500000276,"lon":44.82214400000054,"name":"მნათობის ქუჩა #73 - [1767]","id":1767},{"lat":41.71037267898495,"lon":44.807770987364876,"name":"გრანელის ქუჩა #19 - [1760]","id":1760},{"lat":41.71013322820263,"lon":44.80829287171007,"name":"ლამის ქუჩა #3 - [1761]","id":1761},{"lat":41.70779500000323,"lon":44.81107300000056,"name":"სააკაძის ქუჩა #1 - [1762]","id":1762},{"lat":41.71128963177151,"lon":44.820198217717,"name":"შრომის ქუჩა # 67 - [1768]","id":1768},{"lat":41.82287199998739,"lon":44.78119200000072,"name":"ქვემო ავჭალა - [2816]","id":2816},{"lat":41.70909093011112,"lon":44.81952208911883,"name":"გუმათის ქუჩა #37/2-ის მოპირდაპირედ - [1769]","id":1769},{"lat":41.717000000001995,"lon":44.81515500000056,"name":"გივიშვილის ქუჩა #10 - [2815]","id":2815},{"lat":41.70923500000301,"lon":44.87417200000038,"name":"ვარკეთილის IV მ/რ #403 მოპირდაპირედ - [2402]","id":2402},{"lat":41.708103000003184,"lon":44.879829000000356,"name":"ვარკეთილის IV მ/რ #417 მოპირდაპირედ - [2403]","id":2403},{"lat":41.70197391054532,"lon":44.87432634267948,"name":"ვარკეთილის III მ/რ-ის #304 - [2406]","id":2406},{"lat":41.698962830998774,"lon":44.870059571208955,"name":"ჯავახეთისა და საქართველოს ერთიანობისთვის მებრძოლთა ქუჩების გადაკვეთის მოპირდაპირედ - [2407]","id":2407},{"lat":41.75145229884394,"lon":44.7619220281555,"name":"ვაშლიჯვრის დასახლების III ზონა #8  - [1755]","id":1755},{"lat":41.76307499999564,"lon":44.78037900000069,"name":"მიქელაძის ქუჩა - [3304]","id":3304},{"lat":41.74921213889042,"lon":44.763896105163816,"name":"ვაშლიჯვრის დასახლების IV ზონა #11  - [1756]","id":1756},{"lat":41.76816399999496,"lon":44.7799330000007,"name":"ბელიაშვილის ქუჩა #75 - [3305]","id":3305},{"lat":41.7550919999967,"lon":44.763551000000746,"name":"გოძიაშვილის ქუჩა #63 - [1753]","id":1753},{"lat":41.687962355070454,"lon":44.793123464709616,"name":"სოლოლაკის წყარო - [2801]","id":2801},{"lat":41.77515799999396,"lon":44.7810870000007,"name":"ქირურგიის  ეროვნული ცენტრი - [3306]","id":3306},{"lat":41.75337653626637,"lon":44.76043068778248,"name":"ვაშლიჯვრის დასახლების II ზონა #4ვ - [1754]","id":1754},{"lat":41.77931999999335,"lon":44.782320000000695,"name":"ბელიაშვილის ქუჩა #8-ის მოპირდაპირედ - [3307]","id":3307},{"lat":41.75499386797769,"lon":44.76496605425468,"name":"გოძიაშვილის ქუჩა #51 - [1752]","id":1752},{"lat":41.76285999999565,"lon":44.778869000000704,"name":"მიქელაძისა და ცისკარიშვილის ქუჩების გადაკვეთა - [3302]","id":3302},{"lat":41.7591339999962,"lon":44.780379000000686,"name":"დიღომი III კვ. #16 - [3303]","id":3303},{"lat":41.724406000000975,"lon":44.76738000000072,"name":"მიცკევიჩის ქუჩა #17 - [2807]","id":2807},{"lat":41.72426200000098,"lon":44.76813000000071,"name":"მიცკევიჩის ქუჩა #12 - [2806]","id":2806},{"lat":41.724432000000974,"lon":44.76399900000073,"name":"მიცკევიჩის ქუჩა #28 მოპირდაპირედ - [2809]","id":2809},{"lat":41.724464000000935,"lon":44.770403000000705,"name":"მიცკევიჩის ქუჩა #3 - [2808]","id":2808},{"lat":41.70998124907863,"lon":44.80449556869478,"name":"გრანელის ქუჩა #3 - [1759]","id":1759},{"lat":41.76875699999486,"lon":44.7794030000007,"name":"ბელიაშვილის ქუჩა #75-ის მოპირდაპირედ - [3308]","id":3308},{"lat":41.7539619999969,"lon":44.775870000000694,"name":"დიღომის II კვარტალი - [3309]","id":3309},{"lat":41.75429044190775,"lon":44.765400974713984,"name":"გოძიაშვილის ქ. #14 კ. - [1757]","id":1757},{"lat":41.724267611249246,"lon":44.76450860621891,"name":"მიცკევიჩის ქუჩა #24 - [2805]","id":2805},{"lat":41.75531241665734,"lon":44.76834693970343,"name":"სარაჯიშვილის ქუჩა #12 - [1758]","id":1758},{"lat":41.724278000000936,"lon":44.760592000000734,"name":"ტანძიის ქუჩა - [2804]","id":2804},{"lat":41.787492999992274,"lon":44.7526860000008,"name":"მირიან მეფის ქუჩა #60-ის მოპირდაპირედ - [3310]","id":3310},{"lat":41.73969910424882,"lon":44.79454358184228,"name":"ცოტნე დადიანის ქუჩა #138/136 - [1740]","id":1740},{"lat":41.73767408837112,"lon":44.795265358855374,"name":"#10 საჯარო სკოლა  - [1741]","id":1741},{"lat":41.73275804948059,"lon":44.797212356775816,"name":"მ/ს ნაძალადევი - [1742]","id":1742},{"lat":41.729735010000134,"lon":44.79819869925499,"name":"ცოტნე დადიანის ქუჩა #30 - [1743]","id":1743},{"lat":41.72780721533495,"lon":44.79878745848062,"name":"ცოტნე დადიანის ქუჩა #26 - [1744]","id":1744},{"lat":41.72390850710241,"lon":44.79988711299906,"name":"რკინიგზის გადასასვლელი ხიდი - [1745]","id":1745},{"lat":41.71810998781472,"lon":44.80235928096994,"name":"ც. დადიანის ქუჩა #1 - [1746]","id":1746},{"lat":41.71651900000207,"lon":44.8024350000006,"name":"ჩიტაიას ქუჩა #37 - [1747]","id":1747},{"lat":41.71260348526999,"lon":44.803320354803546,"name":"ჩიტაიას ქ. #4 (მოთხოვნით) - [1748]","id":1748},{"lat":41.72712200947235,"lon":44.79925099018745,"name":"ურიდიას ქუჩა - [1730]","id":1730},{"lat":41.73677999999921,"lon":44.79585500000063,"name":"ც. დადიანის ქუჩა #3  - [1733]","id":1733},{"lat":41.72904868219992,"lon":44.798625243763894,"name":"ცოტნე დადიანის ქუჩა #87 - [1731]","id":1731},{"lat":41.73270334546249,"lon":44.79744291873955,"name":"მ/ს ნაძალადევი - [1732]","id":1732},{"lat":41.74610599999793,"lon":44.792084000000656,"name":"#11 რუსული საჯარო სკოლა - [1738]","id":1738},{"lat":41.74235799999843,"lon":44.79395800000064,"name":"ცოტნე დადიანის ქუჩა #259 - [1735]","id":1735},{"lat":41.74602917981044,"lon":44.792436281417764,"name":"წიწამურის ქუჩა - [1736]","id":1736},{"lat":41.74293399999837,"lon":44.793451000000644,"name":"ცოტნე დადიანის ქუჩა #148 - [1739]","id":1739},{"lat":41.70823961999302,"lon":44.78214312130895,"name":"ჯანაშიას ქუჩა - [806]","id":806},{"lat":41.70964700000297,"lon":44.777167000000674,"name":"თბილისის სახელმწიფო უნივერსიტეტი (კორპუსი #1) - [805]","id":805},{"lat":41.7136164948965,"lon":44.78067705849162,"name":"ზოოპარკი - [804]","id":804},{"lat":41.71380199315995,"lon":44.78223389877563,"name":"გმირთა მოედანი - [803]","id":803},{"lat":41.71824821491409,"lon":44.790356189913105,"name":"აღმაშენებლის გამზირი - [802]","id":802},{"lat":41.71758232292782,"lon":44.791306845901524,"name":"ბაქოს ქუჩა - [801]","id":801},{"lat":41.73646499999931,"lon":44.72060600000086,"name":"ნუცუბიძის IV მ/რ #20-ის მოპირდაპირედ - [1317]","id":1317},{"lat":41.72342800000103,"lon":44.72956500000084,"name":"მარიჯანის ქუჩა  # 4 -ის მოპირდაპირედ - [1318]","id":1318},{"lat":41.731087000000045,"lon":44.724116000000855,"name":"ნუცუბიძის II მ/რ III კვ. #4 - [1315]","id":1315},{"lat":41.73029800000012,"lon":44.722855000000855,"name":"ნუცუბიძის II მ/რ II კვ. #7 კორპუსის მოპირდაპირედ - [1316]","id":1316},{"lat":41.73258257437799,"lon":44.722800142498485,"name":"ნუცუბიძის პლატო  V მ/რ III კვ. # 9 კორპუსი - [1314]","id":1314},{"lat":41.73364852764598,"lon":44.724791626728894,"name":"ნუცუბიძის IV მ/რ #28 - [1311]","id":1311},{"lat":41.734820999999485,"lon":44.72237800000086,"name":"ნუცუბიძის IV მ/რ #22  - [1312]","id":1312},{"lat":41.7237521789399,"lon":44.80013689949689,"name":"ცოტნე დადიანის ქუჩა #39 - [1729]","id":1729},{"lat":41.718171670911126,"lon":44.80250739348782,"name":"ც. დადიანის ქუჩა #1 - [1728]","id":1728},{"lat":41.716333000002024,"lon":44.80258900000061,"name":"ჩიტაიას ქუჩა #37 - [1727]","id":1727},{"lat":41.710422633271065,"lon":44.804002459113256,"name":"ჩიტაიას მ-ნი - [1726]","id":1726},{"lat":41.70598976727205,"lon":44.80564306319403,"name":"#31 საჯარო სკოლა - [1725]","id":1725},{"lat":41.7026590593467,"lon":44.8048223544203,"name":"ტოლსტოის ქუჩა - [1724]","id":1724},{"lat":41.67302100033056,"lon":44.72346199967103,"name":"სოფელი წავკისი - [2853]","id":2853},{"lat":41.70582226834399,"lon":44.848703130157205,"name":"ვაზისუბნის III მ/რ I კვ. #6 - [1722]","id":1722},{"lat":41.71590700000211,"lon":44.79721700000063,"name":"ჯავახიშვილის ქუჩა #107 - [2207]","id":2207},{"lat":41.70592784615627,"lon":44.84886458149795,"name":"ვაზისუბნის III მ/რ I კვ. #6 მოპირდაპირედ - [1721]","id":1721},{"lat":41.74950600000872,"lon":44.778714999693584,"name":"მ/ს დიდუბე  - [2855]","id":2855},{"lat":41.70681400000334,"lon":44.84609200000047,"name":"163-მე საჯარო სკოლა - [1720]","id":1720},{"lat":41.65143500001087,"lon":44.695851000000886,"name":"ვაჟა ფშაველას #33 (კოჯორი, ბოლო გაჩერება) - [2856]","id":2856},{"lat":41.71164009385383,"lon":44.80695969383482,"name":"მამარდაშვილის ქ. #17 - [2200]","id":2200},{"lat":41.71777483108915,"lon":44.82221173126403,"name":"ცაიშის ქუჩა #36 - [2221]","id":2221},{"lat":41.71566587214963,"lon":44.81832839209502,"name":"ნორიოს ქუჩა - [2220]","id":2220},{"lat":41.69405658765196,"lon":44.870248301579714,"name":"ჯავახეთის ქუჩა #10  - [1329]","id":1329},{"lat":41.690864995150825,"lon":44.87053742960159,"name":"მ/ს ვარკეთილი - [1324]","id":1324},{"lat":41.69155241794259,"lon":44.870827218023884,"name":"მ/ს ვარკეთილი - [1325]","id":1325},{"lat":41.69420948462566,"lon":44.870411045442744,"name":"ვარკეთილის IV მ/რ-ის #9 - [1326]","id":1326},{"lat":41.6979261548799,"lon":44.87015972900945,"name":"ჯავახეთისა და საქართველოს ერთიანობისთვის მებრძოლთა ქუჩების გადაკვეთა - [1327]","id":1327},{"lat":41.685017000006354,"lon":44.8672300000004,"name":"წულუკიძის ქუჩა - [1320]","id":1320},{"lat":41.68936519094322,"lon":44.87051682426628,"name":"კალოუბნის ქუჩა - [1322]","id":1322},{"lat":41.68936144694624,"lon":44.87077555809004,"name":"კალოუბნის ქუჩა - [1323]","id":1323},{"lat":41.707339000003316,"lon":44.84184000000048,"name":"ვაზისუბნის II მ/რ #19 მოპირდაპირედ - [1718]","id":1718},{"lat":41.70739813955538,"lon":44.84190830642575,"name":"ვაზისუბნის II მ/რ #19 - [1717]","id":1717},{"lat":41.70194476311136,"lon":44.87202614409718,"name":"სუხიშვილის ქუჩა - [1330]","id":1330},{"lat":41.7064280000034,"lon":44.84575900000046,"name":"163-მე საჯარო სკოლა - [1719]","id":1719},{"lat":41.714076337521206,"lon":44.817772553600875,"name":"ნორიოს აღმართი #54ა - [2219]","id":2219},{"lat":41.698977000004405,"lon":44.85671200000043,"name":"ვარკეთილის IV მ/რ, III კვ. #11 - [1713]","id":1713},{"lat":41.71309500000249,"lon":44.720653000000844,"name":"სტუდქალაქი კორპუსი №4 - [2849]","id":2849},{"lat":41.70804153746107,"lon":44.840395651559916,"name":"ვაზისუბნის II მ/რ #23 - [1716]","id":1716},{"lat":41.69887300000446,"lon":44.856387000000424,"name":"ვარკეთილის IV მ/რ, III კვ. #11 მოპირდაპირედ - [1715]","id":1715},{"lat":41.68190900000682,"lon":44.900765000000284,"name":"ჟორესის ქუჩა - [2847]","id":2847},{"lat":41.7125260000026,"lon":44.80772400000059,"name":"ფარავნის ქუჩა - [2215]","id":2215},{"lat":41.714022000002345,"lon":44.80951700000058,"name":"მიჩურინის ქუჩა  - [2216]","id":2216},{"lat":41.65899998370747,"lon":44.88955241746652,"name":"გორგასალის ქუჩა #54-54ა მოპირდაპირედ - [1712]","id":1712},{"lat":41.71392099754899,"lon":44.81232236260729,"name":"ჩეჩელაშვილის ქუჩა - [2217]","id":2217},{"lat":41.6497100000112,"lon":44.90427500000027,"name":"სურგულაძის ქუჩა #41 - [1711]","id":1711},{"lat":41.713898000002395,"lon":44.81461000000056,"name":"ნორიოს აღმართი #53 - [2218]","id":2218},{"lat":41.710678000002865,"lon":44.80422400000059,"name":"ჩიტაიას ქუჩა - [2212]","id":2212},{"lat":41.71152592486299,"lon":44.80689879431748,"name":"მამარდაშვილის ქ. #17 - [2213]","id":2213},{"lat":41.69229370069539,"lon":44.81497133092737,"name":"მ/ს ავლაბარი - [825]","id":825},{"lat":41.69662000000475,"lon":44.80418500000059,"name":"ბარათაშვილის ქუჩა - [824]","id":824},{"lat":41.69403790203971,"lon":44.80149327045176,"name":"პუშკინის სკვერი - [822]","id":822},{"lat":41.6874884310408,"lon":44.824709062626305,"name":"ქეთევან დედოფლის გამზირი #43 - [829]","id":829},{"lat":41.687353375108394,"lon":44.82490231133296,"name":"#89 საჯარო სკოლა - [828]","id":828},{"lat":41.68921400000574,"lon":44.820199000000535,"name":"ფარნავაზ მეფის ძეგლი. - [826]","id":826},{"lat":41.694637980338,"lon":44.80045561878462,"name":"გრიბოედოვის თეატრი - [821]","id":821},{"lat":41.69782700500896,"lon":44.79852865926444,"name":"#1 საჯარო სკოლა - [820]","id":820},{"lat":41.688400551475944,"lon":44.841461719893225,"name":"მ/ს ისანი (აწყურის ქუჩა) - [1702]","id":1702},{"lat":41.69799628887085,"lon":44.798660566174725,"name":"ქაშუეთის ეკლესია - [819]","id":819},{"lat":41.67243300000807,"lon":44.83481700000048,"name":"#4 სამშობიარო სახლი - [1701]","id":1701},{"lat":41.67161349188735,"lon":44.83730948489125,"name":"გორგასლის ქუჩა #101-ის მოპირდაპირედ - [1700]","id":1700},{"lat":41.73014400000015,"lon":44.72276600000085,"name":"ნუცუბიძის II მ/რ II კვ. #7 კორპუსი - [1306]","id":1306},{"lat":41.71448000000231,"lon":44.783850000000655,"name":"გმირთა მოედანი #1 - [811]","id":811},{"lat":41.731069387178685,"lon":44.72736378879025,"name":"ნუცუბიძის II მ/რ  IV კვ. #3-ის მოპირდაპირედ - [1307]","id":1307},{"lat":41.703321000003804,"lon":44.79096300000063,"name":"მეცნიერებათა აკადემია - [814]","id":814},{"lat":41.73255599999982,"lon":44.73276500000083,"name":"ნუცუბიძის IV მ/რ, #1-ის მოპირდაპირედ  - [1308]","id":1308},{"lat":41.71940512825441,"lon":44.79419068437222,"name":"რკინიგზის დეპარტამენტი - [813]","id":813},{"lat":41.73419999999963,"lon":44.73078600000083,"name":"ნუცუბიძის II მ/რ IV კვ. #5-ის მოპირდაპირედ  - [1309]","id":1309},{"lat":41.70338642218039,"lon":44.791187562150554,"name":"მეცნიერებათა აკადემია - [815]","id":815},{"lat":41.70055489228408,"lon":44.79572507327711,"name":"ოპერა - [818]","id":818},{"lat":41.70024220600013,"lon":44.79652235072882,"name":"ოპერა - [817]","id":817},{"lat":41.72904798773093,"lon":44.72723759571496,"name":"ჟღენტის ქუჩა - [1300]","id":1300},{"lat":41.72894070482838,"lon":44.726919350749654,"name":"ჟღენტის ქუჩა - [1301]","id":1301},{"lat":41.729403000000254,"lon":44.72232500000086,"name":"ნუცუბიძის II მ/რ II კვ. #6  - [1302]","id":1302},{"lat":41.72878245682261,"lon":44.724818451584184,"name":"#130 საბავშვო ბაღი - [1303]","id":1303},{"lat":41.709737000002924,"lon":44.78486200000065,"name":"საჯარო ბიბლიოთეკა - [810]","id":810},{"lat":41.72938482316027,"lon":44.72208775144955,"name":"ნუცუბიძის II მ/რ II კვ. #6-ის მოპირდაპირედ - [1304]","id":1304},{"lat":41.709902618402054,"lon":44.741070812245965,"name":"ვაკის სასაფლაო - [2826]","id":2826},{"lat":41.68112300000688,"lon":44.90279200000028,"name":"ენუქიძის ქუჩა #6ა - [2824]","id":2824},{"lat":41.70715100000327,"lon":44.78680700000064,"name":"ფილარმონია - [809]","id":809},{"lat":41.68125900000688,"lon":44.90206400000029,"name":"ენუქიძის ქუჩა #4 - [2823]","id":2823},{"lat":41.68293500000663,"lon":44.95533400000012,"name":"წმინდა ნიკოლოზის ეკლესია - [842]","id":842},{"lat":41.68338188461333,"lon":44.95464989767938,"name":"წმინდა ნიკოლოზის ეკლესია - [841]","id":841},{"lat":41.73393399999967,"lon":44.81399600000058,"name":"ჟღენტის ქ. #73-ის მოპირდაპირედ - [3385]","id":3385},{"lat":41.81155799998896,"lon":44.819811000000584,"name":"თიანეთის გზატკეცილი #68-ის მოპირდაპირედ - [2253]","id":2253},{"lat":41.73236099999989,"lon":44.82574500000053,"name":"სამღერეთის ქუჩა #42 - [3384]","id":3384},{"lat":41.81391099998864,"lon":44.821211000000574,"name":"მაისურაძის ქუჩა - [2254]","id":2254},{"lat":41.734173999999555,"lon":44.82377100000055,"name":"წერონისის ქუჩა #174 - [3387]","id":3387},{"lat":41.68985200000565,"lon":44.80224100000059,"name":"დადიანის ქუჩა - [848]","id":848},{"lat":41.73378799999962,"lon":44.81492900000057,"name":"ჟღენტის ქუჩა #83 - [3386]","id":3386},{"lat":41.81002599998912,"lon":44.81899400000059,"name":"#6 საჯარო სკოლა - [2252]","id":2252},{"lat":41.730263424289575,"lon":44.821250759580685,"name":"ურიდიას ქუჩა #112-ის მოპირდაპირედ - [3381]","id":3381},{"lat":41.68945420139498,"lon":44.79646223588846,"name":"იაშვილის ქუჩა - [846]","id":846},{"lat":41.81422999998862,"lon":44.82004200000058,"name":"გლდანულა #10 - [3380]","id":3380},{"lat":41.68959300000575,"lon":44.79976900000059,"name":"მაჩაბლის ქუჩა - [847]","id":847},{"lat":41.730326000000105,"lon":44.82118000000055,"name":"ურიდიას ქუჩა #112 - [3383]","id":3383},{"lat":41.68945700000569,"lon":44.79248200000062,"name":"ამაღლების ქუჩა #28  - [844]","id":844},{"lat":41.73038100000014,"lon":44.81890100000055,"name":"ურიდიას ქუჩა #193-ის მოპირდაპირედ - [3382]","id":3382},{"lat":41.689811522225,"lon":44.79423056440351,"name":"ამაღლების ქუჩა #16 - [845]","id":845},{"lat":41.77402074669516,"lon":44.77476971364753,"name":"ბავშვთა ნევროლოგიის ცენტრი - [2248]","id":2248},{"lat":41.786694999992314,"lon":44.774406000000724,"name":"შეერთებული შტატების საელჩო (მოპირდაპირედ) - [2899]","id":2899},{"lat":41.81048399998907,"lon":44.81761400000059,"name":"#185 ბაგა ბაღი - [3377]","id":3377},{"lat":41.77354199999418,"lon":44.77492600000071,"name":"ბავშვთა ნევროლოგიის ცენტრი - [2247]","id":2247},{"lat":41.8106279999891,"lon":44.81782100000059,"name":"#185 ბაგა ბაღი - [3378]","id":3378},{"lat":41.80566799998978,"lon":44.769387000000755,"name":"აგრარული უნივერსიტეტი - [2893]","id":2893},{"lat":41.8143989999885,"lon":44.82028600000059,"name":"გლდანულა #10-ის მოპირდაპირედ - [3379]","id":3379},{"lat":41.73500357971249,"lon":44.8131693530024,"name":"ბუგეულის ქუჩა - [3390]","id":3390},{"lat":41.687511000006026,"lon":44.82712500000052,"name":"მ/ს 300 არაგველი - [830]","id":830},{"lat":41.68734585250098,"lon":44.82719236002916,"name":"მ/ს 300 არაგველი (მოპირდაპირე) - [831]","id":831},{"lat":41.687290000006016,"lon":44.8303240000005,"name":"ქეთევან დედოფლის გამზირი #57 - [832]","id":832},{"lat":41.71835100000179,"lon":44.81714700000055,"name":"სალხინოს ქუჩა - [3398]","id":3398},{"lat":41.68704818892004,"lon":44.856253331949134,"name":"მ/ს სამგორი - [837]","id":837},{"lat":41.73261699256659,"lon":44.82337152143102,"name":"სამღერეთის ქუჩა  #26 - [2262]","id":2262},{"lat":41.735112999999444,"lon":44.80961900000058,"name":"წერონისის ქუჩა #36 - [3397]","id":3397},{"lat":41.683931213709194,"lon":44.88213131165933,"name":"III მასივი I კვ. \"ე\" კ-ის პირდაპირ - [838]","id":838},{"lat":41.73282934666902,"lon":44.82100828265231,"name":"სამღერეთის ქუჩა #10 - [2263]","id":2263},{"lat":41.73739599999917,"lon":44.80634800000059,"name":"კურსების ქუჩა - [3396]","id":3396},{"lat":41.68433800198479,"lon":44.8813849941069,"name":"III მასივი I კვ. \"ე\" კორპუსი - [839]","id":839},{"lat":41.73307933078188,"lon":44.81850832494546,"name":"190-ე საშუალო სკოლის მოპირდაპირედ - [2264]","id":2264},{"lat":41.73851999999896,"lon":44.80471500000061,"name":"ბენდელიანის ქუჩა - [3395]","id":3395},{"lat":41.733858999999654,"lon":44.814898000000575,"name":"ჟღენტის ქუჩა #83 (მოპირდაპირედ) - [2265]","id":2265},{"lat":41.66890200000856,"lon":44.89046000000032,"name":"მარელისის ქუჩა - [2890]","id":2890},{"lat":41.73855999999897,"lon":44.80479300000059,"name":"ბენდელიანის ქუჩა - [3394]","id":3394},{"lat":41.735977999999335,"lon":44.80816800000059,"name":"ახტალის ქუჩა #32 - [3393]","id":3393},{"lat":41.737416999999134,"lon":44.8065020000006,"name":"კურსების ქუჩა - [3392]","id":3392},{"lat":41.72880000000031,"lon":44.82040600000055,"name":"უიარაღოს ქუჩა #68 - [2260]","id":2260},{"lat":41.73514299999947,"lon":44.80998900000059,"name":"წერონისის ქუჩა #38 - [3391]","id":3391},{"lat":41.686659325448375,"lon":44.85578105249812,"name":"მ/ს \"სამგორი\" (ზედა) - [836]","id":836},{"lat":41.72904257336633,"lon":44.826311601462564,"name":"რეხის ქუჩა  - [2261]","id":2261},{"lat":41.72716793449974,"lon":44.81210667118531,"name":"უიარაღოს ქუჩა - [2259]","id":2259},{"lat":41.700421750827005,"lon":44.77260234473763,"name":"ზემო ვერა - [2888]","id":2888},{"lat":41.81160099998895,"lon":44.819687000000584,"name":"თიანეთის გზატკეცილი #68 - [2256]","id":2256},{"lat":41.66891190936381,"lon":44.771077321292445,"name":"შინდისის საჯარო სკოლა (ბოლო გაჩერება) - [2885]","id":2885},{"lat":41.81395299998863,"lon":44.82107300000058,"name":"მაისურაძის ქუჩა - [2255]","id":2255},{"lat":41.73409599999959,"lon":44.82341300000054,"name":"პოლიკლინიკა - [3388]","id":3388},{"lat":41.72473560066222,"lon":44.80887623090826,"name":"#5 საჯარო  სკოლა - [2258]","id":2258},{"lat":41.77221199999435,"lon":44.740445000000825,"name":"წმინდა გიორგის უბანი  - [2883]","id":2883},{"lat":41.73472699999952,"lon":44.81784800000056,"name":"წერონისის ქუჩა #138 - [3389]","id":3389},{"lat":41.81019399998913,"lon":44.81889700000059,"name":"#6 საჯარო სკოლა - [2257]","id":2257},{"lat":41.69867800000444,"lon":44.802457000000594,"name":"ფხოვის ქუჩა - [2882]","id":2882},{"lat":41.68517618935848,"lon":44.79500557865278,"name":"ბოტანიკის ინსტიტუტის პირდაპირ - [861]","id":861},{"lat":41.70098300000412,"lon":44.8031250000006,"name":"მშრალი ხიდი - [864]","id":864},{"lat":41.70292128685713,"lon":44.804538574652554,"name":"ზაარბრუკენის მოედანი - [865]","id":865},{"lat":41.7854409999925,"lon":44.79200400000067,"name":"წყალსადენის ქუჩა - [3361]","id":3361},{"lat":41.70648137418362,"lon":44.79967867560062,"name":"მიხაილოვის საავადმყოფო - [866]","id":866},{"lat":41.77486999999397,"lon":44.79890300000065,"name":"ველისციხის ქუჩა - [3360]","id":3360},{"lat":41.70961500000294,"lon":44.79761500000061,"name":"მარჯანიშვილის მოედანი - [867]","id":867},{"lat":41.79891299999069,"lon":44.81255000000061,"name":"#167 საჯარო სკოლა - [3363]","id":3363},{"lat":41.799237506004154,"lon":44.81250800610954,"name":"#167 საჯარო სკოლა - [3364]","id":3364},{"lat":41.749520999997465,"lon":44.819816000000564,"name":"სანატორიუმი \"თბილისის ზღვა\" - [3355]","id":3355},{"lat":41.74947799999753,"lon":44.821922000000555,"name":"პანსიონატი \"ოქროს საწმისი\" - [3356]","id":3356},{"lat":41.74964699999746,"lon":44.81976400000057,"name":"სანატორიუმი \"თბილისის ზღვა\" - [3357]","id":3357},{"lat":41.70240523172415,"lon":44.93483519039297,"name":"თეთრი ხევ-ჰესი #5 - [2874]","id":2874},{"lat":41.76321499999561,"lon":44.80731900000061,"name":"საგანგებო სიტუაციების დეპარტამენტი - [3358]","id":3358},{"lat":41.774524999994036,"lon":44.79882600000064,"name":"ველისციხის ქუჩა - [3359]","id":3359},{"lat":41.78147899999306,"lon":44.81579000000058,"name":"ზღვის უბნის III მ/რ IV კვ. #65 - [2877]","id":2877},{"lat":41.69632642744527,"lon":44.80443000495592,"name":"ბარათაშვილის ქუჩა (კონკა) - [851]","id":851},{"lat":41.697962283033085,"lon":44.802962404031234,"name":"ფურცელაძის ქუჩა - [852]","id":852},{"lat":41.692494000005304,"lon":44.7992250000006,"name":"სულხან-საბას ქუჩა - [853]","id":853},{"lat":41.82290899998738,"lon":44.82782500000056,"name":"სოფელი გლდანი - [3372]","id":3372},{"lat":41.69128300000548,"lon":44.798442000000605,"name":"ლერმონტოვის ქუჩა - [855]","id":855},{"lat":41.82101899998762,"lon":44.82576600000058,"name":"თიანეთის გზატკეცილი #100-ის მოპირდაპირედ - [3371]","id":3371},{"lat":41.68958739571635,"lon":44.78988925988892,"name":"ამაღლების ქუჩა #47  - [856]","id":856},{"lat":41.82117299998766,"lon":44.82604100000056,"name":"თიანეთის გზატკეცილი #100 - [3370]","id":3370},{"lat":41.69001043134321,"lon":44.79484414632352,"name":"ამაღლების ქუჩა #11 - [857]","id":857},{"lat":41.69050616941922,"lon":44.79726310473356,"name":"იაშვილის ქუჩა #21 - [858]","id":858},{"lat":41.806874999989546,"lon":44.824129000000575,"name":"ხერგიანის ქუჩა - [3376]","id":3376},{"lat":41.68960211120528,"lon":44.792600368001544,"name":"ამაღლების ქუჩა #29 - [859]","id":859},{"lat":41.805399999989824,"lon":44.82726800000056,"name":"#1 ლოგოპედიური ბაღი - [3375]","id":3375},{"lat":41.82384399998729,"lon":44.82833600000056,"name":"სოფელი გლდანი - [3374]","id":3374},{"lat":41.82273099998735,"lon":44.82740000000056,"name":"თიანეთის გზატკეცილისა და რუსთაველის ქუჩების გადაკვეთის მოპირდაპირედ - [3373]","id":3373},{"lat":41.81958699998783,"lon":44.82426200000058,"name":"გლდანისხევი - [3368]","id":3368},{"lat":41.81969799998781,"lon":44.82426200000058,"name":"გლდანისხევი - [3369]","id":3369},{"lat":41.815715999988356,"lon":44.82248700000058,"name":"თიანეთის გზატკეცილისა და გრიგოლ ორბელიანის ქ-ების გადაკვეთა - [3366]","id":3366},{"lat":41.81479830441331,"lon":44.78049403592541,"name":"ფერაძის ქუჩა #47 - [2861]","id":2861},{"lat":41.81565799998837,"lon":44.82232300000057,"name":"თიანეთის გზატკეცილისა და გრიგოლ ორბელიანის ქ-ების გადაკვეთის პირდაპირ - [3367]","id":3367},{"lat":41.776053999993785,"lon":44.73328500000085,"name":"ყაზბეგის ქუჩა #35 - [2860]","id":2860},{"lat":41.77430599999406,"lon":44.8120970000006,"name":"ზღვის უბნის XI მ/რ II კვ. #22-ის მოპირდაპირედ - [1109]","id":1109},{"lat":41.776087999993806,"lon":44.8091270000006,"name":"ბავშვთა საავადმყოფო  - [1108]","id":1108},{"lat":41.77730789184907,"lon":44.80645543529377,"name":"#5 სამშობიარო სახლი - [1107]","id":1107},{"lat":41.78034608119279,"lon":44.80405941347654,"name":"ურეკის ქუჩა - [1106]","id":1106},{"lat":41.667016000008864,"lon":44.91752300000024,"name":"გუმათჰესის ქუჩა #4-ის მოპირდაპირედ - [1104]","id":1104},{"lat":41.666454415247145,"lon":44.918534554559386,"name":"ჭიჭინაძის ქუჩა - [1103]","id":1103},{"lat":41.667917933785915,"lon":44.91467549425324,"name":"გუმათჰესის ქუჩა #10 - [1102]","id":1102},{"lat":41.6691069363712,"lon":44.91307560198675,"name":"გუმათჰესის ქუჩა #13 - [1101]","id":1101},{"lat":41.77310999999429,"lon":44.81386100000059,"name":"ზღვის უბნის XI მ/რ II კვ. #23ა-ს მოპირდაპირედ - [1110]","id":1110},{"lat":41.77414699999407,"lon":44.82422800000055,"name":"ზღვის უბნის III მ/რ-ის V კვ. #12 - [1125]","id":1125},{"lat":41.781610425270834,"lon":44.827309156127704,"name":"წმინდა მირიანისა და ნანას სახელობის ეკლესია - [1123]","id":1123},{"lat":41.77434999999407,"lon":44.81225700000059,"name":"ზღვის უბნის XI მ/რ II კვ. #22 - [1129]","id":1129},{"lat":41.77319599999422,"lon":44.81400200000059,"name":"ზღვის უბნის XI მ/რ II კვ. #23ა - [1128]","id":1128},{"lat":41.771754320518426,"lon":44.82181132210932,"name":"ეკლესია - [1126]","id":1126},{"lat":41.77741731398042,"lon":44.80633610417915,"name":"#5 სამშობიარო სახლი - [1131]","id":1131},