[{"lat":41.720345330581786,"lon":44.79881183950969,"name":"სადგურის მოედანი (2)","name_en":"Station Square (2)","id":"799"},{"lat":41.71758232292782,"lon":44.791306845901524,"name":"ბაქოს ქუჩა","name_en":"Baku Street","id":"801"},{"lat":41.71824821491409,"lon":44.790356189913105,"name":"აღმაშენებლის გამზირი","name_en":"Agmashenebeli Avenue","id":"802"},{"lat":41.71380199315995,"lon":44.78223389877563,"name":"გმირთა მოედანი","name_en":"Heroes Square (Saburtalo direction)","id":"803"},{"lat":41.7136164948965,"lon":44.78067705849162,"name":"ზოოპარკი","name_en":"Zoo","id":"804"},{"lat":41.70964700000297,"lon":44.777167000000674,"name":"თბილისის სახელმწიფო უნივერსიტეტი (კორპუსი #1)","name_en":"Tbilisi State University, Building #1","id":"805"},{"lat":41.70823961999302,"lon":44.78214312130895,"name":"ჯანაშიას ქუჩა","name_en":"Janashia Street","id":"806"},{"lat":41.70715100000327,"lon":44.78680700000064,"name":"ფილარმონია","name_en":"Philharmony","id":"809"},{"lat":41.709737000002924,"lon":44.78486200000065,"name":"საჯარო ბიბლიოთეკა","name_en":"Public Library","id":"810"},{"lat":41.71448000000231,"lon":44.783850000000655,"name":"გმირთა მოედანი #1","name_en":"Heroes Square #1","id":"811"},{"lat":41.71940512825441,"lon":44.79419068437222,"name":"რკინიგზის დეპარტამენტი","name_en":"Railway Department","id":"813"},{"lat":41.703321000003804,"lon":44.79096300000063,"name":"მეცნიერებათა აკადემია","name_en":"Acedemy of Science","id":"814"},{"lat":41.70338642218039,"lon":44.791187562150554,"name":"მეცნიერებათა აკადემია","name_en":"Acedemy of Science","id":"815"},{"lat":41.70024220600013,"lon":44.79652235072882,"name":"ოპერა","name_en":"Opera","id":"817"},{"lat":41.70055489228408,"lon":44.79572507327711,"name":"ოპერა","name_en":"Opera","id":"818"},{"lat":41.69799628887085,"lon":44.798660566174725,"name":"ქაშუეთის ეკლესია","name_en":"Kachueti Church","id":"819"},{"lat":41.69782700500896,"lon":44.79852865926444,"name":"#1 საჯარო სკოლა","name_en":"#1 Public School","id":"820"},{"lat":41.694637980338,"lon":44.80045561878462,"name":"გრიბოედოვის თეატრი","name_en":"Griboedovi Theatre","id":"821"},{"lat":41.69403790203971,"lon":44.80149327045176,"name":"პუშკინის სკვერი","name_en":"Pushkin Square","id":"822"},{"lat":41.69662000000475,"lon":44.80418500000059,"name":"ბარათაშვილის ქუჩა","name_en":"Baratashvili Street","id":"824"},{"lat":41.69229370069539,"lon":44.81497133092737,"name":"მ/ს ავლაბარი","name_en":"Metro Station Avlabari","id":"825"},{"lat":41.68921400000574,"lon":44.820199000000535,"name":"ფარნავაზ მეფის ძეგლი.","name_en":"King Parnavazi Monument","id":"826"},{"lat":41.687353375108394,"lon":44.82490231133296,"name":"#89 საჯარო სკოლა","name_en":"#89 Public School","id":"828"},{"lat":41.6874884310408,"lon":44.824709062626305,"name":"ქეთევან დედოფლის გამზირი #43","name_en":"Queen Ketevani Avenue #43","id":"829"},{"lat":41.687511000006026,"lon":44.82712500000052,"name":"მ/ს 300 არაგველი","name_en":"Metro Station 300 Aragveli","id":"830"},{"lat":41.68734585250098,"lon":44.82719236002916,"name":"მ/ს 300 არაგველი (მოპირდაპირე)","name_en":"Opposite to Metro Station 300 Aragveli","id":"831"},{"lat":41.687290000006016,"lon":44.8303240000005,"name":"ქეთევან დედოფლის გამზირი #57","name_en":"Queen Ketevani Avenue #57","id":"832"},{"lat":41.686659325448375,"lon":44.85578105249812,"name":"მ/ს \"სამგორი\" (ზედა)","name_en":"Metro Station Samgori (Upper Exit)","id":"836"},{"lat":41.68704818892004,"lon":44.856253331949134,"name":"მ/ს სამგორი","name_en":"Metro Station Samgori (Upper Exit)","id":"837"},{"lat":41.683931213709194,"lon":44.88213131165933,"name":"III მასივი I კვ. \"ე\" კ-ის პირდაპირ","name_en":"Opposite to III masivi bloc #1, korp \"e\"","id":"838"},{"lat":41.68433800198479,"lon":44.8813849941069,"name":"III მასივი I კვ. \"ე\" კორპუსი","name_en":"III Massive, Block I, Building \"E\"","id":"839"},{"lat":41.68338188461333,"lon":44.95464989767938,"name":"წმინდა ნიკოლოზის ეკლესია","name_en":"Saint Nikoloz Church","id":"841"},{"lat":41.68293500000663,"lon":44.95533400000012,"name":"წმინდა ნიკოლოზის ეკლესია","name_en":"Saint Nikoloz Church","id":"842"},{"lat":41.68945700000569,"lon":44.79248200000062,"name":"ამაღლების ქუჩა #28 ","name_en":"Amaghleba Street #28","id":"844"},{"lat":41.689811522225,"lon":44.79423056440351,"name":"ამაღლების ქუჩა #16","name_en":"Amaghleba Street #16","id":"845"},{"lat":41.68945420139498,"lon":44.79646223588846,"name":"იაშვილის ქუჩა","name_en":"Iashvili Street","id":"846"},{"lat":41.68959300000575,"lon":44.79976900000059,"name":"მაჩაბლის ქუჩა","name_en":"Machabeli Street","id":"847"},{"lat":41.68985200000565,"lon":44.80224100000059,"name":"დადიანის ქუჩა","name_en":"Dadiani Street","id":"848"},{"lat":41.69632642744527,"lon":44.80443000495592,"name":"ბარათაშვილის ქუჩა (კონკა)","name_en":"Baratashvili Street","id":"851"},{"lat":41.697962283033085,"lon":44.802962404031234,"name":"ფურცელაძის ქუჩა","name_en":"Purtseladze Street","id":"852"},{"lat":41.692494000005304,"lon":44.7992250000006,"name":"სულხან-საბას ქუჩა","name_en":"Sulkhan-Saba Street","id":"853"},{"lat":41.69128300000548,"lon":44.798442000000605,"name":"ლერმონტოვის ქუჩა","name_en":"Lermontovi Street","id":"855"},{"lat":41.68958739571635,"lon":44.78988925988892,"name":"ამაღლების ქუჩა #47 ","name_en":"Amaghleba Street #47","id":"856"},{"lat":41.69001043134321,"lon":44.79484414632352,"name":"ამაღლების ქუჩა #11","name_en":"Amaghleba Street #11","id":"857"},{"lat":41.69050616941922,"lon":44.79726310473356,"name":"იაშვილის ქუჩა #21","name_en":"Iashvili Street #21","id":"858"},{"lat":41.68960211120528,"lon":44.792600368001544,"name":"ამაღლების ქუჩა #29","name_en":"Amaghleba Street #29","id":"859"},{"lat":41.68517618935848,"lon":44.79500557865278,"name":"ბოტანიკის ინსტიტუტის პირდაპირ","name_en":"Opposite to Botanic Institute","id":"861"},{"lat":41.70098300000412,"lon":44.8031250000006,"name":"მშრალი ხიდი","name_en":"Dry Bridge","id":"864"},{"lat":41.70292128685713,"lon":44.804538574652554,"name":"ზაარბრუკენის მოედანი","name_en":"Zaarbriukeni Square","id":"865"},{"lat":41.70648137418362,"lon":44.79967867560062,"name":"მიხაილოვის საავადმყოფო","name_en":"Mikhailovi Hospital","id":"866"},{"lat":41.70961500000294,"lon":44.79761500000061,"name":"მარჯანიშვილის მოედანი","name_en":"Marjanishvili Square","id":"867"},{"lat":41.722942000001176,"lon":44.79171700000064,"name":"ეროვნული სტადიონი","name_en":"National Stadium","id":"875"},{"lat":41.72747300000051,"lon":44.78873200000066,"name":"მ/ს წერეთელი","name_en":"Metro Station Tsereteli","id":"876"},{"lat":41.73080526736566,"lon":44.785945141234,"name":"დიდუბის პანთეონი","name_en":"Didube Pantheon","id":"877"},{"lat":41.733385076856344,"lon":44.78434639352812,"name":"სს თელასი","name_en":"JSC Telasi","id":"878"},{"lat":41.73672834151098,"lon":44.78230183198136,"name":"დ.ბაქრაძის ქუჩა","name_en":"D. Bakradze Street","id":"879"},{"lat":41.73963623708837,"lon":44.78059628954863,"name":"გამოფენა ექსპოჯორჯია","name_en":"Exhibition ExpoGeorgia","id":"880"},{"lat":41.74373980597727,"lon":44.77872114469731,"name":"სამტრედიის ქუჩა","name_en":"Samtredia Street","id":"881"},{"lat":41.74536477745389,"lon":44.77832108270929,"name":"მირცხულავას ქუჩა","name_en":"Mirtskhulava Street","id":"882"},{"lat":41.750209999997416,"lon":44.77738200000069,"name":"წერეთლის გამზირი #138-ის მოპირდაპირედ","name_en":"Opposite toTsereteli Avenue  #138","id":"883"},{"lat":41.75693646653429,"lon":44.77394143410514,"name":"ჩალაძეს ქუჩა","name_en":"Chaladze Street","id":"884"},{"lat":41.76164099999579,"lon":44.774717000000706,"name":"პაიჭაძის ქუჩა #38/5","name_en":"Paichadze Street #38/5","id":"886"},{"lat":41.76583095193177,"lon":44.77528520984645,"name":"გოგიბერიძისა და ახმეტელის ქ-ების გადაკვეთა","name_en":"Gogiberidze Street and Akhmeteli Street intersection","id":"887"},{"lat":41.76914464692686,"lon":44.77491369882632,"name":"ტელეკომპანია იმედი","name_en":"Tv Cimpany Imedi","id":"888"},{"lat":41.77259454100457,"lon":44.774912155049165,"name":"მ. იაშვილის სახელობის ბავშვთა ცენტრალური საავადმყოფო","name_en":"M. Iashvili Children's Central Hospital","id":"889"},{"lat":41.77566129577744,"lon":44.77486103909408,"name":"თბილისის ცენტრალური საავადმყოფო","name_en":"Tbilisi Central Hospital","id":"890"},{"lat":41.77880067781149,"lon":44.774900447496385,"name":"ღუდუშაურის სახელობის კლინიკა","name_en":"Gudushauri Clinic","id":"891"},{"lat":41.779961508549896,"lon":44.77488640630627,"name":"ჭიაურელის ქუჩა","name_en":"Chiaureli Street","id":"892"},{"lat":41.778704520666345,"lon":44.77474735066348,"name":"ღუდუშაურის სახელობის კლინიკა","name_en":"Gudushauri Clinic","id":"893"},{"lat":41.775503056842496,"lon":44.774775699135546,"name":"თბილისის ცენტრალური საავადმყოფო","name_en":"Tbilisi Central Hospital","id":"894"},{"lat":41.75758611117229,"lon":44.773011551460506,"name":"პოლიციის სამმართველო","name_en":"Police department","id":"897"},{"lat":41.754988999996726,"lon":44.7754960000007,"name":"ეკლესია","name_en":"Church. Digomi Block II #7a","id":"898"},{"lat":41.77996637854373,"lon":44.77474668811338,"name":"ჭიაურელის ქუჩა","name_en":"Chiaureli Street","id":"899"},{"lat":41.77243667392826,"lon":44.77477243332188,"name":"მ. იაშვილის სახელობის ბავშვთა ცენტრალური საავადმყოფო","name_en":"M. Iashvili Children's Central Hospital","id":"900"},{"lat":41.74970799999748,"lon":44.776947000000696,"name":"წერეთლის გამზირი #142","name_en":"Tsereteli Avenue #142","id":"902"},{"lat":41.745618999998015,"lon":44.77792500000069,"name":"მირცხულავას ქუჩა","name_en":"Mirtskhulava Street","id":"903"},{"lat":41.743050823189634,"lon":44.77867417693224,"name":"სამტრედიის ქუჩა","name_en":"Samtredia Street","id":"904"},{"lat":41.73873948222243,"lon":44.78082359954993,"name":"გამოფენა ექსპოჯორჯია (მოპირდაპირედ)","name_en":"Opposite to Exhibition ExpoGeorgia","id":"905"},{"lat":41.736061200720435,"lon":44.782327255081185,"name":"დ.ბაქრაძის ქუჩა","name_en":"D. Bakradze Street","id":"906"},{"lat":41.732855910413264,"lon":44.78439249051297,"name":"სს თელასი","name_en":"JSC Telasi","id":"908"},{"lat":41.73016105921978,"lon":44.78608839934305,"name":"დიდუბის პანთეონი","name_en":"Didube Pantheon","id":"909"},{"lat":41.72692600000061,"lon":44.78883900000066,"name":"მ/ს წერეთელი","name_en":"Metro Station Tsereteli","id":"910"},{"lat":41.7230600000011,"lon":44.791343000000644,"name":"დინამო არენა","name_en":"Dinamo Arena","id":"911"},{"lat":41.720751251801076,"lon":44.788933903925845,"name":"მუსიკალური კომედიის და დრამის თეატრი","name_en":"Theatre of Musical Comedy and Drama","id":"912"},{"lat":41.71366953212812,"lon":44.79417836737458,"name":"ტოვსტონოგოვის ქუჩა","name_en":"Tivstonogovi Street","id":"914"},{"lat":41.70989575523549,"lon":44.79695524850668,"name":"მარჯანიშვილის ქუცა","name_en":"Marjanishvili Street","id":"915"},{"lat":41.70859400000309,"lon":44.79791900000062,"name":"პეტერბურგის ქუჩა","name_en":"Petersburg Street","id":"916"},{"lat":41.70659018520385,"lon":44.79944671525944,"name":"მიხაილოვის საავადმყოფო","name_en":"Mikhailovi Hospital","id":"917"},{"lat":41.7009680000042,"lon":44.80296600000059,"name":"მშრალი ხიდი (მოთხოვნით)","name_en":"Dry Bridge","id":"920"},{"lat":41.7159530925668,"lon":44.77860527515411,"name":"საზოგადოებრივი მაუწყებელი","name_en":"Public Broadcaster","id":"924"},{"lat":41.717803528745755,"lon":44.777912881027824,"name":"26 მაისის მოედანი","name_en":"26 May Square","id":"925"},{"lat":41.71949700000162,"lon":44.77692500000069,"name":"პეკინის გამზირი #3","name_en":"Peking Avenue #3","id":"926"},{"lat":41.72105800000137,"lon":44.77525300000068,"name":"ბუკიას ბაღის მოპირდაპირედ","name_en":"Opposite to Bukia Garden","id":"928"},{"lat":41.72235427121887,"lon":44.773866912478695,"name":"ცინცაძის ქუჩა ","name_en":"Tsintsadze Street","id":"929"},{"lat":41.722211978953446,"lon":44.77360267556237,"name":"ცინცაძის ქუჩა ","name_en":"Tsintsadze Street","id":"930"},{"lat":41.72426726734432,"lon":44.77179202020277,"name":"წმინდა კვირიკეს და ივლიტას სახელობის ეკლესია","name_en":"Saint Kvirike and Ivlita Church","id":"931"},{"lat":41.723981942117184,"lon":44.77166155943305,"name":"პეკინის ქუჩა #24","name_en":"Peking Street #24","id":"932"},{"lat":41.72711500000057,"lon":44.76843500000071,"name":"პეკინის გამზირი #36","name_en":"Pekini Avenue #36","id":"936"},{"lat":41.73107400000006,"lon":44.76702400000072,"name":"ჟვანიას მოედანი","name_en":"Zhvania Square","id":"937"},{"lat":41.73091000000003,"lon":44.76693500000072,"name":"ჟვანიას მოედანი","name_en":"Zhvania Square","id":"938"},{"lat":41.73070701111529,"lon":44.76346873698921,"name":"ტაშკენტის ქუჩა","name_en":"Tashkenti Street","id":"939"},{"lat":41.730483384576665,"lon":44.76274697230413,"name":"ტაშკენტის ქუჩა","name_en":"Tashkenti Street","id":"940"},{"lat":41.73006700000018,"lon":44.75714300000075,"name":"ბუდაპეშტის ქუჩა","name_en":"Budapest Street","id":"941"},{"lat":41.729996000000135,"lon":44.758028000000756,"name":"ბუდაპეშტის ქუჩა","name_en":"Budapest Street","id":"942"},{"lat":41.72973000000019,"lon":44.75498100000076,"name":"საბურთალოს სატელეფონო კვანძი","name_en":"Saburtalo Telephone Knot","id":"943"},{"lat":41.729897000000214,"lon":44.75504100000075,"name":"საბურთალოს სატელეფონო კვანძი","name_en":"Saburtalo Telephone Knot","id":"944"},{"lat":41.72962867569013,"lon":44.75228616350215,"name":"ნუცუბიძის ქუჩა #13","name_en":"Nutsubidze Street #13","id":"945"},{"lat":41.729505174071036,"lon":44.75254724148698,"name":"ნუცუბიძის ქუჩა #22","name_en":"Nutsubidze Street #22","id":"946"},{"lat":41.72930800000023,"lon":44.75072500000077,"name":"ნუცუბიძის ქუჩა #28","name_en":"Nutsubidze Street #28","id":"947"},{"lat":41.72940368937575,"lon":44.750333714288466,"name":"ნუცუბიძის ქუჩა#21","name_en":"Nutsubidze Street #21","id":"948"},{"lat":41.72897200000031,"lon":44.74780400000078,"name":"ნუცუბიძის ქუჩა #38","name_en":"Nutsubidze Street #38","id":"949"},{"lat":41.72909590680859,"lon":44.74702693800121,"name":"ნუცუბიძის ქუჩა #53","name_en":"Nutsubidze Street #53","id":"950"},{"lat":41.7285260000004,"lon":44.743066000000795,"name":"თავაძის ქუჩა","name_en":"Tavadze Street","id":"951"},{"lat":41.72824600000039,"lon":44.742799000000794,"name":"თავაძის ქუჩა","name_en":"Tavadze Street","id":"952"},{"lat":41.72746448281674,"lon":44.73765248219565,"name":"ნუცუბიძის ქუჩ #97","name_en":"Nutsubidze Street #97","id":"953"},{"lat":41.72736267876788,"lon":44.73775480699647,"name":"ნუცუბიძის ქუჩა #97-ის მოპირდაპირედ","name_en":"Opposite to Nutsubidze Street #97","id":"954"},{"lat":41.72718325346394,"lon":44.73483325184953,"name":"ნუცუბიძის ქუჩა #123ა","name_en":"Nutsubidze Street #123a","id":"955"},{"lat":41.726784072019264,"lon":44.73207503476902,"name":"ნუცუბიძის ქუჩა #78","name_en":"Nutsubidze Street #78","id":"956"},{"lat":41.726897000000584,"lon":44.73188000000083,"name":"ძოწენიძის ქუჩა","name_en":"Dzotsenidze Street","id":"957"},{"lat":41.7264497607248,"lon":44.728747226908666,"name":"მარიჯანის ქუჩა","name_en":"Marijani Street","id":"958"},{"lat":41.72657723135592,"lon":44.72889421004633,"name":"მარიჯანის ქუჩა","name_en":"Marijani Street","id":"959"},{"lat":41.72640063211997,"lon":44.72698579549614,"name":"ნუცუბიძის ქუჩა II-IV მ/რ","name_en":"Nutsubidze Street II-IV Microdistrict","id":"960"},{"lat":41.726206007454344,"lon":44.72646710438576,"name":"ნუცუბიძის ქუჩა II-IV მ/რ","name_en":"Nutsubidze Street II-IV Microdistrict","id":"961"},{"lat":41.72543600000077,"lon":44.71737900000088,"name":"სანდრო ეულის ქუჩა","name_en":"Sandro Euli Street","id":"962"},{"lat":41.72581447954124,"lon":44.72247071532559,"name":"შავიშვილის ქუჩა","name_en":"Shavishvili Street","id":"963"},{"lat":41.725317000000736,"lon":44.717492000000874,"name":"სანდრო ეულის ქუჩა","name_en":"Sandro Euli Street","id":"964"},{"lat":41.720775000001375,"lon":44.708810000000895,"name":"სოხუმის სახელმწიფო უნივერსიტეტი","name_en":"Sokhumi State University","id":"966"},{"lat":41.72028300000146,"lon":44.71448700000087,"name":"პოლიტკოვსკაიას ქუჩა #6-ის მოპირდაპირედ","name_en":"Politkovskaia Street #6","id":"967"},{"lat":41.72063530759415,"lon":44.711243606989584,"name":"უნივერსიტეტი იბერია","name_en":"University Iberia","id":"968"},{"lat":41.72167300000134,"lon":44.70460800000091,"name":"სოხუმის უნივერსიტეტის ფილიალი","name_en":"Branch of Sokhumi State University","id":"969"},{"lat":41.72218400000125,"lon":44.70304900000091,"name":"პოლიტკოვსკაიას ქუჩა #16","name_en":"Politkovskaia Street #16","id":"970"},{"lat":41.7207036335286,"lon":44.70873143378256,"name":"სოხუმის სახელმწიფო უნივერსიტეტი","name_en":"Sokhumi State University","id":"972"},{"lat":41.72048174083978,"lon":44.71132202011058,"name":"უნივერსიტეტი იბერია","name_en":"University Iberia","id":"973"},{"lat":41.720125599581976,"lon":44.71449923492387,"name":"პოლიტკოვსკაიას ქუჩა #6","name_en":"Politkovskaia Street #6","id":"974"},{"lat":41.72027052497644,"lon":44.71798515888382,"name":"ქავთარაძის ქუჩა ","name_en":"Kavtaradze Street","id":"975"},{"lat":41.718262904554244,"lon":44.717744103024685,"name":"ფიზიკის კვლევითი ინსტიტუტი","name_en":"Research Institute of High Energy Physics","id":"976"},{"lat":41.717563007760496,"lon":44.719746024620946,"name":"უნივერსიტეტის  მაღლივი კორპუსი","name_en":"Higher Building of University","id":"977"},{"lat":41.720073000001534,"lon":44.71845700000087,"name":"ქავთარაძის ქუჩა #1","name_en":"Kavtaradze Street #1","id":"981"},{"lat":41.72029468290581,"lon":44.72130872488804,"name":"ქავთარაძის ქუჩა #11","name_en":"Kavtaradze Street #11","id":"982"},{"lat":41.720205795294284,"lon":44.718378407741014,"name":"ქავთარაძის ქუჩა #2","name_en":"Kavtaradze Street #2","id":"983"},{"lat":41.720440579614994,"lon":44.72113181291753,"name":"ქავთარაძის ქუჩა #10 ","name_en":"Kavtaradze Street #10","id":"984"},{"lat":41.72055481710963,"lon":44.723827949744425,"name":"#35 საჯარო სკოლა ","name_en":"#35 Public School","id":"985"},{"lat":41.720675000001414,"lon":44.72356500000085,"name":"#35 საჯარო სკოლა ","name_en":"#35 Public School","id":"986"},{"lat":41.721236982321656,"lon":44.730833595418865,"name":"#122 საჯარო სკოლა","name_en":"#122 Public School","id":"987"},{"lat":41.72148350382434,"lon":44.73086165378548,"name":"#122 საჯარო სკოლა","name_en":"#122 Public School","id":"988"},{"lat":41.721516205500926,"lon":44.73371434112386,"name":"ქავთარაძის ქუჩა # 27","name_en":"Kavtaradze Street # 27","id":"989"},{"lat":41.721706517287274,"lon":44.73339339332358,"name":"ქავთარაძის ქუჩა #27-ის მოპირდაპირედ","name_en":"Opposite to Kavtaradze Street #27","id":"990"},{"lat":41.72095200000138,"lon":44.727034000000835,"name":"ქავთარაძის ქუჩა #22","name_en":"Kavtaradze Street #22","id":"992"},{"lat":41.72396583233245,"lon":44.74432197802169,"name":"თამარაშვილის ქუჩა","name_en":"Tamarashvili Street","id":"994"},{"lat":41.72424900000093,"lon":44.747611000000774,"name":"ანტონოვის ქუჩა","name_en":"Antonovi Street","id":"996"},{"lat":41.72599892382523,"lon":44.74995069733639,"name":"ვაჟა-ფშაველას გამზ. #35","name_en":"Vazha Pshavela Avenue #35","id":"997"},{"lat":41.724566000000905,"lon":44.751295000000766,"name":"კარტოზიას ქუჩა","name_en":"Kartozia Street","id":"999"},{"lat":41.72502931493989,"lon":44.754896299991465,"name":"#27 საჯარო სკოლა","name_en":"#27 Public School","id":"1000"},{"lat":41.72537600000079,"lon":44.758472000000744,"name":"ყაზბეგის გამზირი #16","name_en":"Kazbegi Avenue#16","id":"1001"},{"lat":41.72594102707644,"lon":44.76446718670818,"name":"ყაზბეგის გამზირი #10","name_en":"Kazbegi Avenue #10","id":"1003"},{"lat":41.726232520148436,"lon":44.76739376192179,"name":"ყაზბეგის გამზირი #2","name_en":"Kazbegi Avenue #2","id":"1004"},{"lat":41.72375949152453,"lon":44.77657994666397,"name":"სააკაძის მოედანი  ","name_en":"Saakadze Square","id":"1007"},{"lat":41.72144624719986,"lon":44.777442186741204,"name":"ტექნიკური უნივერსიტეტი","name_en":"Technical University","id":"1008"},{"lat":41.71967280479654,"lon":44.778248977228934,"name":"სპორტის სასახლე","name_en":"Sport Palace","id":"1009"},{"lat":41.724539856555054,"lon":44.7768689430993,"name":"სააკაძის მოედანი  ","name_en":"Saakadze Square","id":"1010"},{"lat":41.72213226609853,"lon":44.77744803098434,"name":"ტექნიკური უნივერსიტეტი","name_en":"Technical University","id":"1011"},{"lat":41.69084493947267,"lon":44.81699643450643,"name":"ქეთევან დედოფლის გამზირი #19","name_en":"Queen Ketevani Avenue #19","id":"1012"},{"lat":41.68681406441916,"lon":44.83567580671074,"name":"#120 პროფესიული სასწავლებელი","name_en":"#120 Professioanl Collage","id":"1013"},{"lat":41.68712849425859,"lon":44.834019572041804,"name":"ლეხ კაჩინსკის ქუჩა","name_en":"Lech Kaczynski","id":"1014"},{"lat":41.68672600000614,"lon":44.83774400000049,"name":"#87 საჯარო სკოლა","name_en":"#87 Public School","id":"1016"},{"lat":41.68687900000607,"lon":44.84136600000048,"name":"მ/ს ისანი","name_en":"Metro Station Isani","id":"1017"},{"lat":41.68205441712339,"lon":44.83940895739299,"name":"ნავთლუღის ქუჩა #31 ","name_en":"Navtlughi Street #31","id":"1018"},{"lat":41.68185200000683,"lon":44.83940100000048,"name":"ნავთლუღის ქუჩა #10","name_en":"Navtlughi Street #10","id":"1019"},{"lat":41.67757426449858,"lon":44.838625666117196,"name":"რ. ჰოლდბრუქის ქ. #13 (ბაღდათის ქ.) ","name_en":"R. Holdbrooke Street 13 (Baghdati Street))","id":"1020"},{"lat":41.677665801543085,"lon":44.83877768238602,"name":"რ. ჰოლდბრუქის ქ. #13-ის მოპირდაპირედ (ბაღდათის ქ.) ","name_en":"Opposite to R. Holdbrooke Street 13 (Baghdati Street)","id":"1021"},{"lat":41.67632144051427,"lon":44.845255060973734,"name":"ჩოლოყაშვილის ქუჩა #47","name_en":"Cholokashvili Street #47","id":"1024"},{"lat":41.67646896471386,"lon":44.8452652559444,"name":"ჩოლოყაშვილის ქუჩა #47","name_en":"Cholokashvili Street #47","id":"1025"},{"lat":41.67613000000761,"lon":44.846976000000446,"name":"ჩოლოყაშვილის ქუჩა #57","name_en":"Cholokashvili Street #57","id":"1026"},{"lat":41.67447918707245,"lon":44.85579811023188,"name":"ციხისძირის ქუჩა","name_en":"Tsikhisdziri Street","id":"1027"},{"lat":41.67429771945115,"lon":44.85599250197205,"name":"ციხისძირის ქუჩა","name_en":"Tsikhisdziri Street","id":"1028"},{"lat":41.67338124974989,"lon":44.861414963205284,"name":"სტადიონი შევარდენი","name_en":"Stadium Shevardeni","id":"1029"},{"lat":41.671971265591196,"lon":44.86766612302591,"name":"ბოგდან ხმელნიცკის ქუჩა #153","name_en":"Bogdan-Khmelnitski Street #153","id":"1031"},{"lat":41.672171000008134,"lon":44.86764500000038,"name":"ბოგდან ხმელნიცკის ქუჩა #153-ის მოპირდაპირედ","name_en":"Opposite to Bogdan-Khmelnitski Street #153","id":"1032"},{"lat":41.670263616476994,"lon":44.87469439488047,"name":"საავიაციო ქარხანა (მოპირდაპირედ)","name_en":"Opposite to Aviation Factory","id":"1033"},{"lat":41.6704490000084,"lon":44.87329000000037,"name":"საავიაციო ქარხანა","name_en":"Aviation Factory","id":"1034"},{"lat":41.67147365347233,"lon":44.87599273229578,"name":"ბოგდან ხმელნიცკის ქუჩა #48-ის მოპირდაპირედ","name_en":"Opposite to Bogdan-Khmelnitski Street #48","id":"1035"},{"lat":41.67166753376459,"lon":44.875883855037344,"name":"ბოგდან ხმელნიცკის ქუჩა #48","name_en":"Opposite to Bogdan-Khmelnitski Street #3a","id":"1036"},{"lat":41.671991474915835,"lon":44.87782487409049,"name":"ბოგდან ხმელნიცკის ქუჩა #7 ","name_en":"Bogdan-Khmelnitski Street #7","id":"1037"},{"lat":41.67204228545386,"lon":44.87812835246093,"name":"ბოგდან ხმელნიცკის ქუჩა #7-ის მოპირდაპირედ","name_en":"Opposite to Bogdan-Khmelnitski Street #7","id":"1038"},{"lat":41.665020825745145,"lon":44.89019042459514,"name":"#5 საავადმყოფო (ჰოსპიტალი)","name_en":"Hospital #5","id":"1039"},{"lat":41.664894470043485,"lon":44.89003675474542,"name":"#5 საავადმყოფო (ჰოსპიტალი)","name_en":"Hospital #5","id":"1040"},{"lat":41.670211000008344,"lon":44.88222200000034,"name":"#106 საჯარო სკოლა","name_en":"#106 Public School","id":"1041"},{"lat":41.67026900000841,"lon":44.88232900000035,"name":"#106 საჯარო სკოლა","name_en":"#106 Public School","id":"1042"},{"lat":41.66393800000926,"lon":44.892255000000304,"name":"ზმკ-ს სასაფლაო","name_en":"ZMK Cemetary","id":"1043"},{"lat":41.66399500000925,"lon":44.89193200000031,"name":"ზმკ-ს სასაფლაო","name_en":"ZMK Cemetary","id":"1044"},{"lat":41.66304911576512,"lon":44.894107922827104,"name":"ნაკადულის ქუჩა","name_en":"Nakaduli Street","id":"1045"},{"lat":41.66284013120891,"lon":44.89415207012318,"name":"ნაკადულის ქუჩა","name_en":"Nakaduli Street","id":"1046"},{"lat":41.72717314434487,"lon":44.773454057520155,"name":"#117 საბავშვო ბაღი","name_en":"#117Kindergarten","id":"1047"},{"lat":41.72753400000047,"lon":44.765360000000726,"name":"მ/ს სამედიცინო უნივერსიტეტი","name_en":"Metro Station Medical University","id":"1050"},{"lat":41.72723532021375,"lon":44.76268243814341,"name":"ჭილაძის ქუჩა","name_en":"Chiladze Street","id":"1051"},{"lat":41.72687818679118,"lon":44.758731205747594,"name":"ვაჟა-ფშაველას გამზირი #27","name_en":"Vazha Pshavela Avenue #27","id":"1054"},{"lat":41.726359000000684,"lon":44.75340100000075,"name":"სამედიცინო უნივერსიტეტი","name_en":"Medical University","id":"1055"},{"lat":41.68508454782647,"lon":44.79505487275601,"name":"ბოტანიკის ინსტიტუტი","name_en":"Botanic Institute","id":"1057"},{"lat":41.6870470837636,"lon":44.83375285471918,"name":"ლეხ კაჩინსკის ქუჩა","name_en":"Lech Kaczynski Street","id":"1063"},{"lat":41.68585705679097,"lon":44.84997416275159,"name":"აბუსერიძის ქუჩა","name_en":"Abuseridze Street","id":"1065"},{"lat":41.68520902502492,"lon":44.85478509332869,"name":"მ/ს სამგორი","name_en":"Metro Station Samgori","id":"1066"},{"lat":41.685223000006324,"lon":44.85395600000043,"name":"ქეთევან დედოფლის გამზირი #16 ","name_en":"Metro Station Samgori","id":"1067"},{"lat":41.683651976391474,"lon":44.861573181668284,"name":"მოსკოვის გამზირი # 15","name_en":"Moscow Avenue # 15","id":"1068"},{"lat":41.68370878705057,"lon":44.861886185084686,"name":"მოსკოვის გამზირი # 15-ის მოპირდაპირედ","name_en":"Opposite to Moscow Avenue # 15","id":"1069"},{"lat":41.68097900000694,"lon":44.86742400000038,"name":"მოსკოვის გამზირი #19","name_en":"Moscow Avenue #19","id":"1070"},{"lat":41.68117000000691,"lon":44.86759900000039,"name":"მოსკოვის გამზირი #19","name_en":"Opposite to Moscow Avenue #19","id":"1071"},{"lat":41.6808014535006,"lon":44.87081730506571,"name":"მოსკოვის გამზირისა და ჯავახეთის ქუჩის გადაკვეთა","name_en":"Cross of Moscow Avenue and Javaxeti Street","id":"1072"},{"lat":41.6769590000075,"lon":44.87494400000036,"name":"მოსკოვის გამზირი #18","name_en":"Moscow Avenue #18","id":"1074"},{"lat":41.67675400000748,"lon":44.87461700000036,"name":"მოსკოვის გამზირი #18-ის  მოპირდაპირედ","name_en":"Opposite to Moscow Avenue #18","id":"1075"},{"lat":41.67443223970629,"lon":44.879991962037025,"name":"მოსკოვის გამზირი #38","name_en":"Moscow Avenue #38","id":"1076"},{"lat":41.67471900000776,"lon":44.87832500000035,"name":"მოსკოვის გამზირი #38ა-ს  მოპირდაპირედ","name_en":"Moscow Avenue #38a","id":"1077"},{"lat":41.67247900000809,"lon":44.884030000000344,"name":"მოსკოვის გამზირი #39","name_en":"Moscow Avenue #39","id":"1079"},{"lat":41.67277162466758,"lon":44.884106727774636,"name":"მოსკოვის გამზირი #46","name_en":"Moscow Avenue #46","id":"1080"},{"lat":41.670902255046165,"lon":44.8879652664123,"name":"მოსკოვის გამზირი #47","name_en":"Moscow Avenue #47","id":"1081"},{"lat":41.6712840000082,"lon":44.88796700000032,"name":"მოსკოვის გამზირი #47-ის მოპირდაპირედ","name_en":"Opposite to Moscow Avenue #47","id":"1082"},{"lat":41.670460548568116,"lon":44.899259901382976,"name":"ქინძმარაულის ქუჩა #12-ის მოპიდაპირედ","name_en":"Opposite to Kindzmarauli Street #12","id":"1085"},{"lat":41.670495989366245,"lon":44.8997205787429,"name":"ქინძმარაულის ქუჩა #12","name_en":"Kindzmarauli Street #12","id":"1086"},{"lat":41.6671848939527,"lon":44.90878219926906,"name":"ქინძმარაულის #15","name_en":"Kindzmarauli Street #15","id":"1087"},{"lat":41.667346003092774,"lon":44.9088812900787,"name":"ქინძმარაულის ქუჩა #15-ის მოპირდაპირედ","name_en":"Opposite to Kindzmarauli Street #15","id":"1088"},{"lat":41.66849514727114,"lon":44.90609236750253,"name":"ქინძმარაულის ქ. #9","name_en":"Kindzmarauli Street #9","id":"1089"},{"lat":41.668679411719566,"lon":44.90607571452415,"name":"ქინძმარაულის ქ. #9-ის მოპირდაპირედ","name_en":"Opposite to Kindzmarauli Street #9","id":"1090"},{"lat":41.66362055669173,"lon":44.91793265204605,"name":"ქინძმარაულის ქუჩა #19","name_en":"Kindzmarauli Street #19","id":"1091"},{"lat":41.663310189569636,"lon":44.91788618883263,"name":"ქინძმარაულის ქუჩა #19-ის მოპირდაპირედ","name_en":"Opposite to Kindzmarauli Street #19","id":"1092"},{"lat":41.67042400000832,"lon":44.91398400000025,"name":"ცისკარიშვილის ქუჩა #5-ის მოპირდაპირედ","name_en":"Opposite toTsiskarishvili Street  #5","id":"1093"},{"lat":41.67333066557941,"lon":44.91406232369148,"name":"ჭიჭინაძის ქუჩა #21-ის მოპირდაპირედ","name_en":"Opposite to Chichinadze Street #21","id":"1095"},{"lat":41.67350252682107,"lon":44.914154626514986,"name":"ჭიჭინაძის ქუჩა #21","name_en":"Chichinadze Street #21","id":"1096"},{"lat":41.67513719127899,"lon":44.91270385905022,"name":"#201 სუსტმხედველთა საჯარო სკოლა","name_en":"Public School for Impaired Vision people #201","id":"1097"},{"lat":41.67511292773824,"lon":44.912536652126654,"name":"#201 სუსტმხედველთა საჯარო სკოლა","name_en":"Public School for Impaired Vision people #201","id":"1098"},{"lat":41.67188249165775,"lon":44.91537438616288,"name":"#94-ე საჯარო სკოლის მოპირდაპირედ","name_en":"Opposite to #94 Public School","id":"1099"},{"lat":41.6691069363712,"lon":44.91307560198675,"name":"გუმათჰესის ქუჩა #13","name_en":"Gumathesi Street #13","id":"1101"},{"lat":41.667917933785915,"lon":44.91467549425324,"name":"გუმათჰესის ქუჩა #10","name_en":"Gumathesi Street #10","id":"1102"},{"lat":41.666454415247145,"lon":44.918534554559386,"name":"ჭიჭინაძის ქუჩა","name_en":"Chichinadze Street","id":"1103"},{"lat":41.667016000008864,"lon":44.91752300000024,"name":"გუმათჰესის ქუჩა #4-ის მოპირდაპირედ","name_en":"Opposite to Gumathesi Street #4","id":"1104"},{"lat":41.78034608119279,"lon":44.80405941347654,"name":"ურეკის ქუჩა","name_en":"Ureki Street","id":"1106"},{"lat":41.77730789184907,"lon":44.80645543529377,"name":"#5 სამშობიარო სახლი","name_en":"#5 Maternity Hospital","id":"1107"},{"lat":41.776087999993806,"lon":44.8091270000006,"name":"ბავშვთა საავადმყოფო ","name_en":"Children's Hospital","id":"1108"},{"lat":41.77430599999406,"lon":44.8120970000006,"name":"ზღვის უბნის XI მ/რ II კვ. #22-ის მოპირდაპირედ","name_en":"Opposite to Sea Area, Microdistrict XI, Block II, #22","id":"1109"},{"lat":41.77310999999429,"lon":44.81386100000059,"name":"ზღვის უბნის XI მ/რ II კვ. #23ა-ს მოპირდაპირედ","name_en":"Opposite to Sea Area, Microdistrict XI, Block II, #23a","id":"1110"},{"lat":41.771520175779365,"lon":44.82173410384873,"name":"ეკლესია","name_en":"Opposite to Sea Area, Microdistrict XI, Block III, #49","id":"1112"},{"lat":41.77392199999413,"lon":44.82416000000055,"name":"შპს ალიონი (ზღვის უბნის III მ/რ V კვ., #12 კორპ-ის მოპირდაპირედ)","name_en":"Opposite to Sea Area, Microdistrict III, Block V, #12","id":"1113"},{"lat":41.77882599999348,"lon":44.823708000000565,"name":"მუხიანის გადასახვევი","name_en":"Mukhiani Turnout","id":"1114"},{"lat":41.782461999992975,"lon":44.82763600000055,"name":"მუხიანის IV მ/რ, #3","name_en":"Mukhiani Microdistrict IV, #3","id":"1115"},{"lat":41.7837709999928,"lon":44.82550900000055,"name":"გობრონიძის ქუჩა","name_en":"Gobronidze Street","id":"1116"},{"lat":41.78535416429901,"lon":44.82281941579896,"name":"მუხიანის სატელეფონო კვანძი","name_en":"Mukhiani Telephone Knot","id":"1117"},{"lat":41.78188899999301,"lon":44.82865600000054,"name":"მუხიანის IV ბ მ/რ #29","name_en":"Mukhiani Microdistrict IV, #29","id":"1118"},{"lat":41.791156779829244,"lon":44.81693000481401,"name":"მ/ს ახმეტელის თეატრი","name_en":"Metro Stration Akhmeteli Theatre","id":"1119"},{"lat":41.787067999992324,"lon":44.82018700000058,"name":"ნონეშვილის და გობრონიძის ქ-ების გადაკვეთა","name_en":"Noneshvili Street and Gobronidze Street intersection","id":"1121"},{"lat":41.781610425270834,"lon":44.827309156127704,"name":"წმინდა მირიანისა და ნანას სახელობის ეკლესია","name_en":"Saint Miriani and Nana Church","id":"1123"},{"lat":41.77414699999407,"lon":44.82422800000055,"name":"ზღვის უბნის III მ/რ-ის V კვ. #12","name_en":"Sea Area, Microdistrict XI, Block V, #12","id":"1125"},{"lat":41.771754320518426,"lon":44.82181132210932,"name":"ეკლესია","name_en":"Sea Area, Microdistrict XI, Block III, #49","id":"1126"},{"lat":41.77319599999422,"lon":44.81400200000059,"name":"ზღვის უბნის XI მ/რ II კვ. #23ა","name_en":"Sea Area, Microdistrict XI, Block II, #23a","id":"1128"},{"lat":41.77434999999407,"lon":44.81225700000059,"name":"ზღვის უბნის XI მ/რ II კვ. #22","name_en":"Sea Area, Microdistrict, XI Block II, #22","id":"1129"},{"lat":41.77591999999383,"lon":44.8096270000006,"name":"მ. გურამიშვილის სახელობის პედიატრიული კლინიკა","name_en":"M. Guramishvili Pediatric Clinic","id":"1130"},{"lat":41.77741731398042,"lon":44.80633610417915,"name":"#5 სამშობიარო სახლი","name_en":"Opposite to #5 Maternity Hospital","id":"1131"},{"lat":41.780493123082735,"lon":44.80413928537275,"name":"ურეკის ქუჩა","name_en":"Ureki Street","id":"1132"},{"lat":41.709119000003014,"lon":44.77425600000069,"name":"ერისთავის ქუჩა","name_en":"Eristavi Street","id":"1140"},{"lat":41.708937000003026,"lon":44.77461700000068,"name":"ერისთავის ქუჩა","name_en":"Eristavi Street","id":"1141"},{"lat":41.70960000000293,"lon":44.7691720000007,"name":"ბავშვთა ქალაქი მზიური","name_en":"Children's City Mziuri","id":"1142"},{"lat":41.709447135295,"lon":44.76915249288078,"name":"ჭავჭავაძის გამზირი #36","name_en":"Chavchavadze Avenue #36","id":"1143"},{"lat":41.71010700000292,"lon":44.76561800000072,"name":"თაქთაქიშვილის ქუჩა","name_en":"Taktakishvili Street","id":"1144"},{"lat":41.709864000002945,"lon":44.76603900000071,"name":"არაყიშვილის ქუჩა","name_en":"Arakishvili Street","id":"1145"},{"lat":41.71019471791194,"lon":44.76233805196643,"name":"#9  საავადმყოფო ","name_en":"Opposite to Hospital #9","id":"1146"},{"lat":41.7106709335183,"lon":44.76116659471041,"name":"#9 საავადმყოფო","name_en":"Hospital #9","id":"1147"},{"lat":41.71113700000276,"lon":44.75828700000074,"name":"სამების ეკლესია","name_en":"Sameba Cathedral","id":"1148"},{"lat":41.711332567067444,"lon":44.7558296810206,"name":"დარიალის ქუჩა","name_en":"Dariali Street","id":"1149"},{"lat":41.71163247252403,"lon":44.755091392578024,"name":"ყიფშიძის ქუჩა","name_en":"Kipshidze Street","id":"1150"},{"lat":41.71175647244678,"lon":44.7516024544566,"name":"ვაკის პარკი","name_en":"Vake Park","id":"1151"},{"lat":41.7118230000026,"lon":44.749804000000765,"name":"უცხო ენების ინსტიტუტი","name_en":"Institute of Foreign Languages","id":"1152"},{"lat":41.71163400000272,"lon":44.74681400000077,"name":"სპორტის აკადემია","name_en":"Sport Academy","id":"1153"},{"lat":41.71129600000272,"lon":44.747003000000774,"name":"სპორტის აკადემია","name_en":"Sport Academy","id":"1154"},{"lat":41.71106000000276,"lon":44.74367200000078,"name":"ფეხბურთის ფედერაცია","name_en":"Football Federation","id":"1155"},{"lat":41.71086800000273,"lon":44.74377200000078,"name":"ფეხბურთის ფედერაცია","name_en":"Football Federation","id":"1156"},{"lat":41.73002500000017,"lon":44.7702890000007,"name":"შარტავას ქუჩა #38","name_en":"Shartava Street #38","id":"1161"},{"lat":41.730144000000145,"lon":44.77037600000071,"name":"შარტავას ქუჩა #38-ის მოპირდაპირედ","name_en":"Opposite to Shartava Street #38","id":"1162"},{"lat":41.73138716919397,"lon":44.767815826800955,"name":"ჟვანიას მოედანი","name_en":"Zhvania Square","id":"1163"},{"lat":41.730545914904184,"lon":44.767432456124325,"name":"პეკინის გამზირი #46","name_en":"Pekini Avenue #46","id":"1164"},{"lat":41.734370982752054,"lon":44.76971475068664,"name":"ისაკაძის ქუჩა ","name_en":"Isakadze Street","id":"1165"},{"lat":41.73554765397764,"lon":44.76979860851956,"name":"ჩერქეზიშვილის ქუჩა ","name_en":"Cherkezishvili Street","id":"1166"},{"lat":41.74574590086387,"lon":44.769583357418526,"name":"ინდუსტრიული კოლეჯი","name_en":"Industrial College","id":"1168"},{"lat":41.74578427765876,"lon":44.76984793554621,"name":"ინდუსტრიული კოლეჯი","name_en":"Industrial College","id":"1169"},{"lat":41.75286199999703,"lon":44.769748000000725,"name":"სოფლის მეურნეობის სამინისტრო","name_en":"Ministry of Agriculture","id":"1170"},{"lat":41.75235999999705,"lon":44.769586000000714,"name":"სოფლის მეურნეობის სამინისტრო","name_en":"Ministry of Agriculture","id":"1171"},{"lat":41.75533599999664,"lon":44.76914900000072,"name":"პოლიციის სამმართველო","name_en":"Police Department","id":"1173"},{"lat":41.75970099999603,"lon":44.76831000000073,"name":"სოფელი დიღმის გადასახვევი","name_en":"Village Digomi Turnout","id":"1174"},{"lat":41.75984799999609,"lon":44.76861100000073,"name":"მარშალ გელოვანის გამზირი #10","name_en":"Marshal Gelovani Avenue #10","id":"1175"},{"lat":41.762536282789014,"lon":44.76886412346452,"name":"მიქელაძის ქუჩა","name_en":"Cross of Agmashenebeli Alley and Mikeladze Street","id":"1176"},{"lat":41.765848554509866,"lon":44.769161434336425,"name":"აღმაშენებლის ხეივნისა და ახმეტელის ქ-ის გადაკვეთა.","name_en":"Cross of Agmashenebeli Alley and Akhmeteli Street","id":"1177"},{"lat":41.781129539012866,"lon":44.769535621356326,"name":"აღსრულების ეროვნული ბიურო (მოთხოვნით)","name_en":"National Enforcement Bureau","id":"1178"},{"lat":41.785267999992506,"lon":44.77007900000074,"name":"აღმაშენებლის ხეივანი მე-12 კმ","name_en":"Agmashenebeli Aleey #12th Km","id":"1179"},{"lat":41.78886099999203,"lon":44.76493300000076,"name":"სუპერმარკეტი გუდვილი","name_en":"Supermarket Goodwill","id":"1180"},{"lat":41.792630999991516,"lon":44.75742400000079,"name":"პეტრიწის ქუჩა #15","name_en":"Petritsi Street #15","id":"1181"},{"lat":41.792685473695464,"lon":44.761417061816566,"name":"პეტრიწის ქუჩა #5","name_en":"Petritsi Street #5","id":"1182"},{"lat":41.78742399999223,"lon":44.74629800000081,"name":"დიდი დიღომი III მ/რ #15","name_en":"Didi Digomi, Microdistrict III, #15","id":"1183"},{"lat":41.78735299999229,"lon":44.74179100000083,"name":"დიდი დიღომი III მ/რ #19","name_en":"Didi Digomi, Microdistrict III, #19","id":"1184"},{"lat":41.78904499999205,"lon":44.73771200000085,"name":"დიდი დიღომი III მ/რ #37","name_en":"Didi Digomi, Microdistrict III, #37","id":"1185"},{"lat":41.794314761127886,"lon":44.74275760142725,"name":"დიდი დიღომი IV მ/რ #8","name_en":"Didi Digomi, Microdistrict IV, #8","id":"1187"},{"lat":41.795221999991185,"lon":44.74561400000082,"name":"დიდი დიღომი IV მ/რ #6-ის მოპირდაპირედ","name_en":"Opposite to Didi Digomi, Microdistrict IV, #6","id":"1188"},{"lat":41.79435499999125,"lon":44.742611000000835,"name":"დიდი დიღომი IV მ/რ #8-ის მოპირდაპირედ","name_en":"Opposite to Didi Digomi, Microdistrict IV, #8","id":"1190"},{"lat":41.79260299999156,"lon":44.738284000000846,"name":"დიდი დიღომი IV მ/რ #25","name_en":"Didi Digomi, Microdistrict IV, #25","id":"1191"},{"lat":41.78889199999208,"lon":44.73754000000085,"name":"დიდი დიღომი III მ/რ #37-ის მოპირდაპირედ","name_en":"Opposite to Didi Digomi, Microdistrict III, #37","id":"1192"},{"lat":41.78728299999224,"lon":44.74214900000082,"name":"დიდი დიღომი III მ/რ #19-ის მოპირდაპირედ","name_en":"Opposite to Didi Digomi, Microdistrict III, #19","id":"1193"},{"lat":41.78729699999228,"lon":44.74611900000081,"name":"დიდი დიღომი III მ/რ #15-ის მოპირდაპირედ","name_en":"Opposite to Didi Digomi, Microdistrict III, #15","id":"1194"},{"lat":41.78796099999222,"lon":44.74869400000081,"name":"დიდი დიღომი III მ/რ #3","name_en":"Opposite to Didi Digomi, Microdistrict III, #3","id":"1195"},{"lat":41.788926917926815,"lon":44.755389996073646,"name":"პეტრე იბერისა და გიორგი ბრწყინვალეს გადაკვეთა","name_en":"Cross of Petre Iberi and Giorgi Brtskinvale Streets","id":"1196"},{"lat":41.79246699999156,"lon":44.756852000000784,"name":"პეტრიწის ქუჩა #14","name_en":"Petritsi Street #14","id":"1197"},{"lat":41.792404488072464,"lon":44.75876128307034,"name":"პეტრიწის ქუჩა #7/8","name_en":"Petritsi Street #7/8","id":"1198"},{"lat":41.79250497279976,"lon":44.762051081253674,"name":"პეტრიწის ქუჩა #4","name_en":"Petritsi Street #4","id":"1199"},{"lat":41.78895199999204,"lon":44.76454000000075,"name":"გიორგი ბრწყინვალის ქუჩა","name_en":"Giorgi Brtskinvale Street","id":"1200"},{"lat":41.7857468173222,"lon":44.76907448673567,"name":"დიდი დიღომი","name_en":"Didi Digomi","id":"1201"},{"lat":41.779036999993444,"lon":44.76847500000074,"name":"ცესკო","name_en":"Central Election Comission","id":"1202"},{"lat":41.78332499999282,"lon":44.76884600000074,"name":"რესტორანი \"ფორტუნა\" (მოთხოვნით)","name_en":"Restorant \"Fortuna\"","id":"1203"},{"lat":41.772357999994355,"lon":44.768370000000736,"name":"საქალაქო სასამართლო","name_en":"Tbilisi City Court","id":"1205"},{"lat":41.76011164387619,"lon":44.77086521990323,"name":"რობაქიძის გამზირი #23ა","name_en":"Tegeta Motors","id":"1208"},{"lat":41.75996199999605,"lon":44.77067200000072,"name":"დიღომის I კვარტალი","name_en":"Digomi, Block I","id":"1209"},{"lat":41.708446029158644,"lon":44.79438550473133,"name":"მარჯანიშვილის თეატრი","name_en":"Marjanishvili Theatre","id":"1211"},{"lat":41.70719100000335,"lon":44.79110400000063,"name":"გალაქტიონის ხიდი","name_en":"Galaktioni Bridge","id":"1212"},{"lat":41.70853700000311,"lon":44.79491900000063,"name":"მარჯანიშვილის თეატრი","name_en":"Marjanishvili Theatre","id":"1213"},{"lat":41.689355000005754,"lon":44.790072000000634,"name":"ამაღლების ქუჩა #47 (მოპირდაპირედ)","name_en":"Opposte to Amaghleba Street #47","id":"1217"},{"lat":41.69351900000516,"lon":44.78246300000065,"name":"მთაწმინდის პარკი","name_en":"Mtatsminda Park","id":"1220"},{"lat":41.68368604616131,"lon":44.76631209300776,"name":"ოქროყანა - კოტეჯები","name_en":"Okrokana-cottages","id":"1235"},{"lat":41.72374470670209,"lon":44.7453448720176,"name":"ყაზბეგის გამზ. და თამარაშვილის ქ-ის გადაკვეთ","name_en":"Kazbegi Avenue and Tamarashvili Street intersection","id":"1238"},{"lat":41.720759278801694,"lon":44.745690093564455,"name":"ვაკე-საბურთალოს გამგეობა","name_en":"Vake-Saburtalo Gemgeoba","id":"1239"},{"lat":41.71342279143173,"lon":44.74718598754712,"name":"წერეთლის ქუჩა","name_en":"Tsereteli Street","id":"1240"},{"lat":41.706813852592695,"lon":44.78593776332388,"name":"ფილარმონია","name_en":"Philharmony","id":"1241"},{"lat":41.72746500000047,"lon":44.73203800000083,"name":"ნუცუბიძის სახელობის სკვერი","name_en":"Nutsubidze Public Garden","id":"1243"},{"lat":41.72832600000039,"lon":44.73369800000082,"name":"ძოწენიძის ქუჩა #4ა","name_en":"Dzotsenidze Street #4a","id":"1244"},{"lat":41.72946200000026,"lon":44.73625600000081,"name":"ნუცუბიძის III მ/რ II კვ. #5","name_en":"Nutsubidze Microdistrict III, Block II, #5","id":"1248"},{"lat":41.73019200000014,"lon":44.73552600000082,"name":"#171 საჯარო სკოლა","name_en":"#171 Public School","id":"1249"},{"lat":41.72945100000024,"lon":44.73145900000083,"name":"ღვთისმშობლის ხარების ეკლესია","name_en":"Mother of God Khareba Church","id":"1250"},{"lat":41.72936600000026,"lon":44.73316700000082,"name":"ნუცუბიძის III მ/რ II კვ.#5 ","name_en":"Nutsubidze Microdistrict III, Block II #5","id":"1251"},{"lat":41.72053229126974,"lon":44.71748902688602,"name":"პოლიტკოვსკაიას ქუჩა ","name_en":"Politkovskaia Street","id":"1252"},{"lat":41.722506000001175,"lon":44.71848700000087,"name":"ვაჟა-ფშაველას გამზ. #104","name_en":"Vazha Pshavela Avenue #104","id":"1253"},{"lat":41.72300100000114,"lon":44.717954000000866,"name":"ვაჟა-ფშაველას გამზირი #97","name_en":"Vazha Pshavela Avenue #97","id":"1254"},{"lat":41.722840128319774,"lon":44.72164955488133,"name":"შავიშვილის ქუჩა","name_en":"Vazha Pshavela Block VI #1a","id":"1255"},{"lat":41.72346200000102,"lon":44.72220700000086,"name":"შავიშვილის ქუჩა","name_en":"Vazha Pshavela Avenue #87","id":"1256"},{"lat":41.723525980284144,"lon":44.7283373293126,"name":"ვაჟა-ფშაველას გამზირი #78","name_en":"Vazha Pshavela Avenue #78","id":"1257"},{"lat":41.72322800000105,"lon":44.725333000000845,"name":"თოფურიას ქუჩა","name_en":"Topuridze Street","id":"1258"},{"lat":41.723737314604314,"lon":44.72504302082016,"name":"თოფურიას ქუჩა","name_en":"Topuridze Street","id":"1259"},{"lat":41.7240544074609,"lon":44.7282684124091,"name":"ვაჟა-ფშაველას ძეგლი","name_en":"Vazha Pshavela Monument","id":"1260"},{"lat":41.72421500000092,"lon":44.731793000000835,"name":"მ/ს ვაჟა-ფშაველა","name_en":"Metro Station Vazha Pshavela","id":"1261"},{"lat":41.724409800133344,"lon":44.73521749152032,"name":"ვაჟა ფშაველას გამზირი #57-ის მოპირდაპირედ","name_en":"Opposite to Vazha Pshavela Avenue #57","id":"1262"},{"lat":41.72489621202923,"lon":44.73823347581429,"name":"ვაჟა ფშაველას გამზირი  #53","name_en":"Vazha Pshavela Avenue #53","id":"1263"},{"lat":41.7123451861628,"lon":44.751682390963644,"name":"ვაკის პარკი","name_en":"Vake Park","id":"1264"},{"lat":41.7137420879513,"lon":44.747920246030375,"name":"წერეთლის ქუჩა","name_en":"Tsereteli Street","id":"1265"},{"lat":41.71968778302451,"lon":44.74610358580551,"name":"უნივერსიტეტის ქუჩა","name_en":"University Street","id":"1266"},{"lat":41.720964000001395,"lon":44.79285000000064,"name":"წინამძღვრიშვილი ქუჩა #135","name_en":"Tsinamdzgvrishvili Street #135","id":"1267"},{"lat":41.76577399999524,"lon":44.774440000000716,"name":"დიღმის V კვ. #7","name_en":"Digomi Block V #7","id":"1268"},{"lat":41.76220499999571,"lon":44.77437700000071,"name":"დიღმის ბაზარი","name_en":"Digomi Market","id":"1269"},{"lat":41.72763579234428,"lon":44.725726874270656,"name":"ვატიკანის საელჩო","name_en":"Vatikani Embassy","id":"1296"},{"lat":41.727541708635584,"lon":44.72561584049343,"name":"ვატიკანის საელჩო","name_en":"Vatikani Embassy","id":"1297"},{"lat":41.728050000000465,"lon":44.72841700000084,"name":"მხატვრის ქუჩა","name_en":"Mkhatvari Street","id":"1298"},{"lat":41.72800397982589,"lon":44.72870672621595,"name":"მხატვრის ქუჩა","name_en":"Mkhatvari Street","id":"1299"},{"lat":41.72904798773093,"lon":44.72723759571496,"name":"ჟღენტის ქუჩა","name_en":"Zhgenti Street","id":"1300"},{"lat":41.72894070482838,"lon":44.726919350749654,"name":"ჟღენტის ქუჩა","name_en":"Zhgenti Street","id":"1301"},{"lat":41.729403000000254,"lon":44.72232500000086,"name":"ნუცუბიძის II მ/რ II კვ. #6 ","name_en":"Nutsubidze Microdistrict II, Block II #6","id":"1302"},{"lat":41.72878245682261,"lon":44.724818451584184,"name":"#130 საბავშვო ბაღი","name_en":"#130 Kindergarten","id":"1303"},{"lat":41.72938482316027,"lon":44.72208775144955,"name":"ნუცუბიძის II მ/რ II კვ. #6-ის მოპირდაპირედ","name_en":"Opposite to Nutsubidze Microdistrict II, Block II, #6","id":"1304"},{"lat":41.73014400000015,"lon":44.72276600000085,"name":"ნუცუბიძის II მ/რ II კვ. #7 კორპუსი","name_en":"Nutsubidze Microdistrict II, Block II, #7","id":"1306"},{"lat":41.73109376487187,"lon":44.728354529387516,"name":"ნუცუბიძის II მ/რ  IV კვ. #3-ის მოპირდაპირედ","name_en":"Opposite to Nutsubidze Microdistrict II, Block IV, #3","id":"1307"},{"lat":41.73255599999982,"lon":44.73276500000083,"name":"ნუცუბიძის IV მ/რ, #1-ის მოპირდაპირედ ","name_en":"Opposite to Nutsubidze Microdistrict IV, #1","id":"1308"},{"lat":41.73419999999963,"lon":44.73078600000083,"name":"ნუცუბიძის II მ/რ IV კვ. #5-ის მოპირდაპირედ ","name_en":"Opposite to Nutsubidze Microdistrict II, Block IV, #5","id":"1309"},{"lat":41.73364852764598,"lon":44.724791626728894,"name":"ნუცუბიძის IV მ/რ #28","name_en":"Nutsubidze Microdistrict IV, #28","id":"1311"},{"lat":41.734820999999485,"lon":44.72237800000086,"name":"ნუცუბიძის IV მ/რ #22 ","name_en":"Nutsubidze Microdistrict IV, #22","id":"1312"},{"lat":41.73258257437799,"lon":44.722800142498485,"name":"ნუცუბიძის პლატო  V მ/რ III კვ. # 9 კორპუსი","name_en":"Nutsubidze Plato Microdistrict V, Block III, #9","id":"1314"},{"lat":41.731087000000045,"lon":44.724116000000855,"name":"ნუცუბიძის II მ/რ III კვ. #4","name_en":"Nutsubidze Microdistrict II, Block III, #4","id":"1315"},{"lat":41.73029800000012,"lon":44.722855000000855,"name":"ნუცუბიძის II მ/რ II კვ. #7 კორპუსის მოპირდაპირედ","name_en":"Opposite to Nutsubidze Microdistrict II, Block II, #7","id":"1316"},{"lat":41.73646499999931,"lon":44.72060600000086,"name":"ნუცუბიძის IV მ/რ #20-ის მოპირდაპირედ","name_en":"Opposite to Nutsubidze Microdistrict IV, #20","id":"1317"},{"lat":41.72342800000103,"lon":44.72956500000084,"name":"მარიჯანის ქუჩა  # 4 -ის მოპირდაპირედ","name_en":"Opposite to Marijani Street #4","id":"1318"},{"lat":41.685017000006354,"lon":44.8672300000004,"name":"წულუკიძის ქუჩა","name_en":"Tsulukidze Street","id":"1320"},{"lat":41.68936519094322,"lon":44.87051682426628,"name":"კალოუბნის ქუჩა","name_en":"Opposite to Kaloubani Street and Javakheti Street intersection","id":"1322"},{"lat":41.68936144694624,"lon":44.87077555809004,"name":"კალოუბნის ქუჩა","name_en":"Kaloubani Street and Javakheti Street intersection","id":"1323"},{"lat":41.690864995150825,"lon":44.87053742960159,"name":"მ/ს ვარკეთილი","name_en":"Metro Station Varketili","id":"1324"},{"lat":41.69155241794259,"lon":44.870827218023884,"name":"მ/ს ვარკეთილი","name_en":"Opposite to Metro Station Varketili","id":"1325"},{"lat":41.69420948462566,"lon":44.870411045442744,"name":"ვარკეთილის IV მ/რ-ის #9","name_en":"Varketili, Microdistrict IV, #9","id":"1326"},{"lat":41.6979261548799,"lon":44.87015972900945,"name":"ჯავახეთისა და საქართველოს ერთიანობისთვის მებრძოლთა ქუჩების გადაკვეთა","name_en":"Cross of Javaxeti and Heroes Fighting for Territorial Integrity Streets","id":"1327"},{"lat":41.69405658765196,"lon":44.870248301579714,"name":"ჯავახეთის ქუჩა #10 ","name_en":"Javakheti Street #10","id":"1329"},{"lat":41.70194476311136,"lon":44.87202614409718,"name":"სუხიშვილის ქუჩა","name_en":"Sukhishvili Street and Javakhishvili Street intersection","id":"1330"},{"lat":41.70190698356187,"lon":44.87170404402909,"name":"სუხიშვილის ქუჩა","name_en":"Opposite to Sukhishvili Street and Javakhishvili Street intersection","id":"1331"},{"lat":41.702093973936314,"lon":44.872982446174284,"name":"ვარკეთილის III მ/რ-ის #304 მოპირდაპირედ","name_en":"Opposite to Varketili, Microdistrict III, #304","id":"1332"},{"lat":41.701875377261196,"lon":44.87752580387233,"name":"ვარკეთილის III მ/რ-ის #310 მოპირდაპირედ","name_en":"Opposite to Varketili, Microdistrict III, #310","id":"1333"},{"lat":41.70245000000398,"lon":44.88124500000035,"name":"სუხიშვილის მოედანი","name_en":"Sukhishvili Square","id":"1334"},{"lat":41.70415900000371,"lon":44.882405000000354,"name":"ვარკეთილის 3-ის II მ/რ #18","name_en":"Varketili 3, Microdistrict II, #18","id":"1335"},{"lat":41.70788746632118,"lon":44.8821631602771,"name":"ვარკეთილი 3-ის IV მ/რ, #421 მოპირდაპირედ","name_en":"Varketili 3, Microdistrict IV, #421","id":"1336"},{"lat":41.70824000000322,"lon":44.87738600000037,"name":"ვარკეთილი 3-ის IV მ/რ, #410","name_en":"Varketili 3, Microdistrict IV, #410","id":"1337"},{"lat":41.70965700000295,"lon":44.874135000000386,"name":"ვარკეთილი 3-ის IV მ/რ, #403","name_en":"Varketili 3, Microdistrict IV, #403","id":"1338"},{"lat":41.70903600000303,"lon":44.87195500000038,"name":"ვარკეთილის IIIა მ/რ #338 მოპირდაპირედ","name_en":"Opposite to Varketili, Microdistrict IIIa, #338","id":"1339"},{"lat":41.71784800000184,"lon":44.77716400000068,"name":"დოლიძის ქუჩა","name_en":"Dolidze Street","id":"1340"},{"lat":41.717240000001915,"lon":44.77478800000069,"name":"პანკისის ქუჩა","name_en":"Pankisi Street","id":"1341"},{"lat":41.71645300000199,"lon":44.77169600000069,"name":"ტეხურას ქუჩა","name_en":"Tekhura Street","id":"1342"},{"lat":41.71601107284926,"lon":44.76985997271192,"name":"ბაკურიანის ქუჩა","name_en":"Bakuriani Street","id":"1343"},{"lat":41.71639600000204,"lon":44.767619000000714,"name":"ლიხაურის ქუჩა","name_en":"Likhauri Street","id":"1344"},{"lat":41.71658554739566,"lon":44.765335760397896,"name":"დოლიძის ქუჩა #89","name_en":"Dolidze Street #89","id":"1345"},{"lat":41.71628700000209,"lon":44.76793500000072,"name":"ლიხაურის ქუჩა","name_en":"Likhauri Street","id":"1347"},{"lat":41.71590746139497,"lon":44.7695508854147,"name":"ბაკურიანის ქუჩა","name_en":"Bakuriani Street","id":"1348"},{"lat":41.71640600000205,"lon":44.77175600000071,"name":"ტეხურას ქუჩა","name_en":"Tekhura Street","id":"1349"},{"lat":41.71673200000201,"lon":44.77499100000069,"name":"ჩაილურის ქუჩა ","name_en":"Chailuri Street","id":"1350"},{"lat":41.722154000001275,"lon":44.79675000000062,"name":"სადგურის მოედანი  #7 (სასტუმრო \"კოლხეთი\")","name_en":"Station Square #7 (hotel \"Kolkheti\")","id":"1352"},{"lat":41.736196999999265,"lon":44.746973000000786,"name":"ლისის ტბის დასახლება II","name_en":"Lisi Lake Settlement II","id":"1353"},{"lat":41.73719668331453,"lon":44.73914377098838,"name":"ონკოლოგიური კვლევითი ცენტრი","name_en":"Oncology Research Center","id":"1354"},{"lat":41.73048700000005,"lon":44.75808800000074,"name":"ბუდაპეშტის ქუჩა #13ა ","name_en":"Budapest Street #13a","id":"1355"},{"lat":41.731792332872736,"lon":44.754701410147625,"name":"ბერიტაშვილის #1-ის პირდაპირ","name_en":"Opposite to Beritashvili #1","id":"1356"},{"lat":41.731398000000006,"lon":44.75420800000075,"name":"ბუდაპეშტის ქუჩა #44","name_en":"Budapest Street #44","id":"1357"},{"lat":41.7304541681468,"lon":44.75777490490863,"name":"ბუდაპეშტის ქუჩა #13ა-ს მოპირდაპირედ","name_en":"Opposite to Budapest Street #13a","id":"1358"},{"lat":41.69159283603604,"lon":44.80812801539022,"name":"სიონის ეკლესია","name_en":"Sioni Church","id":"1362"},{"lat":41.6878471783283,"lon":44.818141984324434,"name":"ორთაჭალა","name_en":"Ortachala","id":"1365"},{"lat":41.686263000006186,"lon":44.82012100000053,"name":"300 არაგველის მემორიალი","name_en":"300 Aragveli Memorial","id":"1366"},{"lat":41.68255213658162,"lon":44.82350103243819,"name":"გორგასლის მოედანი","name_en":"Gorgasali Squre","id":"1367"},{"lat":41.67691899605316,"lon":44.82397166347475,"name":"კრწანისის ქუჩა #3","name_en":"Krtsanisi Street #3","id":"1369"},{"lat":41.67533460141545,"lon":44.822082882224585,"name":"კრწანისის ქუჩა #7ა ","name_en":"Krtsanisi Street #7ა","id":"1370"},{"lat":41.67505400000774,"lon":44.81993900000053,"name":"კრწანისის ქუჩა #17ა","name_en":"Krtsanisi Street #17ა","id":"1371"},{"lat":41.674452111635496,"lon":44.81555352955195,"name":"კრწანისის ქუჩა #47","name_en":"Krtsanisi Street #47","id":"1373"},{"lat":41.67091800000826,"lon":44.81530300000055,"name":"კრწანისის ქუჩა #53","name_en":"Krtsanisi Street #53","id":"1374"},{"lat":41.6707810000083,"lon":44.81363700000055,"name":"კრწანისის ქუჩა #63 ","name_en":"Krtsanisi Street #63","id":"1377"},{"lat":41.670900000008324,"lon":44.815456000000545,"name":"კრწანისის ქუჩა #53 მოპირდაპირედ","name_en":"Opposite to Krtsanisi Street #53","id":"1378"},{"lat":41.674393000007754,"lon":44.815467000000545,"name":"კრწანისის ქუჩა #47 მოპირდაპირედ","name_en":"Opposite to Krtsanisi Street #47","id":"1380"},{"lat":41.6748830000077,"lon":44.81989100000053,"name":"კრწანისის ქუჩა #17ა მოპირდაპირედ","name_en":"Opposite to Krtsanisi Street #17a","id":"1381"},{"lat":41.6752767570329,"lon":44.82190293727581,"name":"კრწანისის ქუჩა #7ა  მოპირდაპირედ","name_en":"Opposite to Krtsanisi Street #7a","id":"1383"},{"lat":41.676716000007524,"lon":44.82393000000051,"name":"კრწანისის ქუჩა #3 მოპირდაპირედ","name_en":"Opposite to Krtsanisi Street #3","id":"1384"},{"lat":41.679302000007155,"lon":44.82480000000052,"name":"ორთაჭალის ქუჩა","name_en":"Ortachala Street","id":"1386"},{"lat":41.68196498716291,"lon":44.82392765297106,"name":"#72 საჯარო სკოლა","name_en":"#72 Public School","id":"1387"},{"lat":41.68333600000655,"lon":44.82316800000053,"name":"გორგასლის მოედანი","name_en":"Gorgasali Squre","id":"1388"},{"lat":41.68792900000596,"lon":44.818311000000534,"name":"ორთაჭალა","name_en":"Ortachala","id":"1390"},{"lat":41.70934900000301,"lon":44.74114700000078,"name":"ვაკის სასაფლაო","name_en":"Vake Cemetary","id":"1397"},{"lat":41.708241000003135,"lon":44.73402900000081,"name":"წყნეთის გზატკეცილი #9","name_en":"Tskneti Highway #9","id":"1398"},{"lat":41.7100480000029,"lon":44.73255300000081,"name":"წყნეთის გზატკეცილი #25","name_en":"Tskneti Highway #25","id":"1399"},{"lat":41.71061300000277,"lon":44.727536000000825,"name":"წყნეთის გზატკეცილი #41","name_en":"Tskneti Highway #41","id":"1400"},{"lat":41.71258500000254,"lon":44.72108300000085,"name":"სტუდქალაქი კორპუსი №1","name_en":"Students' hostel Building #1","id":"1401"},{"lat":41.709913000002956,"lon":44.732733000000806,"name":"წყნეთის გზატკეცილი #12","name_en":"Tskneti Highway #12","id":"1402"},{"lat":41.71009347210379,"lon":44.7309491668053,"name":"ბაგები","name_en":"Bagebi","id":"1403"},{"lat":41.706003631561764,"lon":44.73670189911322,"name":"თბილისის წყალი","name_en":"Tbilisi Water","id":"1404"},{"lat":41.72847268944575,"lon":44.717768037013286,"name":"თავისუფალი უნივერსიტეტი","name_en":"Free University","id":"1405"},{"lat":41.727474520082,"lon":44.71905937858844,"name":"ბედიას ქუჩა #17","name_en":"Bedia Street #17","id":"1406"},{"lat":41.72741258569555,"lon":44.71898479066166,"name":"ბედიას ქუჩა #17-ის მოპირდაპირედ","name_en":"Opposite to Bedia Street #17","id":"1407"},{"lat":41.72726400000049,"lon":44.71726000000087,"name":"ბედიას ქუჩა #14","name_en":"Bedia Street #14","id":"1408"},{"lat":41.72697800000061,"lon":44.71865700000087,"name":"ბედიას ქუჩა #12ა","name_en":"Bedia Street #12a","id":"1410"},{"lat":41.72691600000055,"lon":44.71884800000087,"name":"ბედიას ქუჩა #12ა-ს მოპირდაპირედ","name_en":"Opposite to Bedia Street #12a","id":"1411"},{"lat":41.72726673990073,"lon":44.72117732596389,"name":"ბედიას ქუჩა #16","name_en":"Bedia Street #16","id":"1412"},{"lat":41.727392904650024,"lon":44.72127396625394,"name":"ბედიას ქუჩა #10","name_en":"Bedia Street #10","id":"1413"},{"lat":41.72568674612426,"lon":44.71976090228096,"name":"ბედიას ქუჩა","name_en":"Bedia Street","id":"1416"},{"lat":41.72555003399242,"lon":44.720084012995066,"name":"ბედიას ქუჩა","name_en":"Bedia Street","id":"1417"},{"lat":41.75167599999719,"lon":44.789600000000654,"name":"კ/თ საქართველო","name_en":"Movie Theatre Georgia","id":"1419"},{"lat":41.749964239340834,"lon":44.78075230428303,"name":"მ/ს დიდუბე","name_en":"Metro Station Didube (Upper Exit)","id":"1420"},{"lat":41.74981369463328,"lon":44.78128267389439,"name":"მ/ს დიდუბე","name_en":"Metro Station Didube (Upper Exit)","id":"1422"},{"lat":41.7499285260785,"lon":44.78543728126761,"name":"ჭყონდიდელის ქუჩა","name_en":"Chkondideli Street","id":"1423"},{"lat":41.75011886369235,"lon":44.78520542478409,"name":"ჭყონდიდელის ქუჩა","name_en":"Chkondideli Street","id":"1424"},{"lat":41.75064699999729,"lon":44.79047700000066,"name":"კ/თ საქართველო (მოპირდაპირედ)","name_en":"Opposite to Movie Theatre Georgia","id":"1425"},{"lat":41.75355899999692,"lon":44.78920100000066,"name":"გვაზაურის ქუჩა","name_en":"Gvazauri Street","id":"1426"},{"lat":41.7541439999968,"lon":44.78857500000067,"name":"ახალდაბის ქუჩა","name_en":"Akhaldaba Street","id":"1427"},{"lat":41.75915899999612,"lon":44.78799300000067,"name":"ქართულ ამერიკული უმაღლესი სკოლა (მოპირდაპირედ)","name_en":"Opposite to Georgian-American Highest School","id":"1428"},{"lat":41.75822199999626,"lon":44.788326000000666,"name":"ქართულ ამერიკული უმაღლესი სკოლა","name_en":"Georgian-American Highest School","id":"1429"},{"lat":41.756363999996566,"lon":44.78833300000067,"name":"გურამიშვილის გამზირი #11","name_en":"Guramishvili Avenue #11","id":"1430"},{"lat":41.7559629999966,"lon":44.78803300000067,"name":"გურამიშვილის გამზირი #11-ის მოპირდაპირედ","name_en":"Opposite to Guramishvili Avenue #11","id":"1431"},{"lat":41.76310099999557,"lon":44.78860900000067,"name":"ლიახვის ქუჩა","name_en":"Liakhvi Street","id":"1432"},{"lat":41.76294268327138,"lon":44.78886379448048,"name":"ლიახვის ქუჩა","name_en":"Liakhvi Street","id":"1433"},{"lat":41.76594499999525,"lon":44.79030300000066,"name":"მ/ს ღრმაღელე","name_en":"Metro Station Ghrmaghele","id":"1434"},{"lat":41.76617999999517,"lon":44.79004100000066,"name":"მ/ს ღრმაღელე","name_en":"Metro Station Ghrmaghele","id":"1435"},{"lat":41.77013483952281,"lon":44.79251173172059,"name":"გურამიშვილის გამზირი #68/72","name_en":"Guramishvili Street #68/72","id":"1436"},{"lat":41.77006299999464,"lon":44.792825000000654,"name":"გურამიშვილის გამზირი #23","name_en":"Guramishvili Street #23","id":"1437"},{"lat":41.77254299999435,"lon":44.794102000000656,"name":"#114 საჯარო სკოლა","name_en":"#114 Public School","id":"1438"},{"lat":41.78305152003339,"lon":44.798427743742806,"name":"მ/ს სარაჯიშვილი","name_en":"Metro Station Sarajishvili","id":"1439"},{"lat":41.77510723899725,"lon":44.79483473476612,"name":"მ/ს გურამიშვილი","name_en":"Metro Station Guramishvili","id":"1440"},{"lat":41.77485699999402,"lon":44.79507000000065,"name":"მ/ს გურამიშვილი","name_en":"Metro Station Guramishvili","id":"1441"},{"lat":41.77810499999352,"lon":44.79597500000065,"name":"გურამიშვილის გამზირი #39ვ","name_en":"Guramishvili Street #39v","id":"1442"},{"lat":41.785376999992515,"lon":44.805839000000624,"name":"სასამართლო","name_en":"Opposite to Gldani-Nadzaladevi municipality","id":"1443"},{"lat":41.784695999992636,"lon":44.80774300000061,"name":"ზღვის უბნის IV მ/რ #5-ის მოპირდაპირედ","name_en":"Opposite to Sea Area, Microdistrict IV, #5","id":"1444"},{"lat":41.78415699999272,"lon":44.80933400000061,"name":"#154 საჯარო სკოლა","name_en":"#154 Public School","id":"1445"},{"lat":41.780925661039994,"lon":44.81169339262538,"name":"ლეკიშვილის ქუჩა","name_en":"Lekishvili Street","id":"1446"},{"lat":41.777429425265716,"lon":44.816372598765625,"name":"ზღვის უბნის III მ/რ II კვ. #23-ის მოპირდაპირედ","name_en":"Opposite to Sea Area, Microdistrict III, Block II, #23","id":"1447"},{"lat":41.77707399999368,"lon":44.82168500000057,"name":"#159  საჯარო სკოლა","name_en":"#159 Public School","id":"1448"},{"lat":41.78429899999271,"lon":44.82654000000055,"name":"დუმბაძის გამზირი","name_en":"Dumbadze Avenue","id":"1449"},{"lat":41.78490474549143,"lon":44.82989480686464,"name":"მუხიანის IV ა მ/რ #5","name_en":"Mukhiani, Microdistrict Iva, #5","id":"1450"},{"lat":41.78822399999215,"lon":44.82878200000055,"name":"მუხიანის I მ/რ #13","name_en":"Mukhiani, Microdistrict I, #13","id":"1454"},{"lat":41.78848176526748,"lon":44.82244362749442,"name":"მუხიანის I მ/რ, #5","name_en":"Mukhiani Microdistrict I, #5","id":"1455"},{"lat":41.777262999993674,"lon":44.82175700000056,"name":"ზღვის უბნის III მ/რ III კვ. #53","name_en":"Sea Area, Microdistrict III, Block III, #53","id":"1456"},{"lat":41.776406579793374,"lon":44.81999616317973,"name":"ზღვის უბნის III მ/რ II კვ. #29","name_en":"Sea Area, Microdistrict III, Block II, #29","id":"1457"},{"lat":41.77750199999359,"lon":44.816488000000575,"name":"ზღვის უბნის III მ/რ II კვ. #23 ","name_en":"Sea Area, Microdistrict III, Block II, #23","id":"1458"},{"lat":41.78099899999315,"lon":44.811774000000604,"name":"ლეკიშვილის ქუჩა","name_en":"Lekishvili Street","id":"1459"},{"lat":41.78533099999259,"lon":44.806058000000625,"name":"სასამართლო","name_en":"Court","id":"1460"},{"lat":41.78420599999271,"lon":44.8094500000006,"name":"#154 საჯარო სკოლა","name_en":"#154 Public School","id":"1461"},{"lat":41.779548999993395,"lon":44.80716700000061,"name":"ზღვის უბნის X კვ #32","name_en":"Sea Area Block X #32","id":"1462"},{"lat":41.688906000005794,"lon":44.812646000000555,"name":"აბანოთუბანი","name_en":"Abanotubani","id":"1464"},{"lat":41.68901200000582,"lon":44.81279500000056,"name":"აბანოთუბანი","name_en":"Abanotubani","id":"1465"},{"lat":41.67922195413545,"lon":44.82459262901614,"name":"ორთაჭალის ქუჩა","name_en":"Ortachala Street","id":"1466"},{"lat":41.67557111148312,"lon":44.830984454581746,"name":"გულიას მოედანი","name_en":"Gulia Square (toward Bus Station)","id":"1468"},{"lat":41.68584549079061,"lon":44.84050686357849,"name":"ქ.წამებულის გამზირი","name_en":"Ketevan Martyr Avenue","id":"1470"},{"lat":41.68441755560827,"lon":44.88769025332831,"name":"პეპელა","name_en":"Pepela","id":"1472"},{"lat":41.68796900000598,"lon":44.902424000000295,"name":"სანტე","name_en":"Opposite to Sante","id":"1473"},{"lat":41.68797100000595,"lon":44.920969000000234,"name":"ორხევის ასახვევი","name_en":"Orkhevi Crossing Road Down","id":"1474"},{"lat":41.68950200000576,"lon":44.93378500000019,"name":"ქვემო ალექსეევკა","name_en":"Kvemo Aleqseevka","id":"1475"},{"lat":41.692919700433045,"lon":44.96261127312068,"name":"ლილოს დასახლებასთან ჩასახვევი","name_en":"Lilo Settlement crossing down","id":"1476"},{"lat":41.686002000006226,"lon":44.97906800000005,"name":"#168 საჯარო სკოლა","name_en":"#168 Public School","id":"1477"},{"lat":41.68025200000706,"lon":44.98301700000003,"name":"ლილოს დასახლება II კვ #3","name_en":"Lilo Settlement, Block II, #3","id":"1480"},{"lat":41.693060634617815,"lon":44.960220573724946,"name":"ლილოს დასახლებასთან ჩასახვევის მოპირდაპირედ","name_en":"Lilo Settlement Exit","id":"1482"},{"lat":41.68998141642471,"lon":44.93362731682084,"name":"ზემო ალექსეევკა","name_en":"Zemo Alekseevka","id":"1483"},{"lat":41.68871978717706,"lon":44.92656668087167,"name":"ორხევის ასახვევი","name_en":"Orkhevi Crossing Road","id":"1484"},{"lat":41.688367000005904,"lon":44.90236500000029,"name":"სანტე","name_en":"Sante","id":"1485"},{"lat":41.68439234053172,"lon":44.8715374379172,"name":"კახეთის გზატკეცილისა და ჯავახეთის ქუჩების გადაკვეთა","name_en":"Javakheti Street and Kakheti Highway intersection","id":"1487"},{"lat":41.68479100088858,"lon":44.887395005273625,"name":"კალოუბნის ქუჩა","name_en":"Kaloubani Street","id":"1488"},{"lat":41.685746247980404,"lon":44.84023167879938,"name":"ქ.წამებულის გამზირი","name_en":"Ketevan Martyr Avenue","id":"1489"},{"lat":41.676032010115755,"lon":44.833980847550286,"name":"ორთაჭალის ცენტრალური ავტოსადგური","name_en":"Opposite to Ortachala Central Automobile Station","id":"1490"},{"lat":41.67586940234948,"lon":44.83436312299623,"name":"ორთაჭალის ცენტრალური ავტოსადგური","name_en":"Ortachala Central Automobile Station","id":"1491"},{"lat":41.675184069078185,"lon":44.82949804744724,"name":"გულიას მოედანი","name_en":"Gulia Square","id":"1492"},{"lat":41.67646250339349,"lon":44.82677785243608,"name":"გორგასლის ქუჩა","name_en":"Gorgasali Street","id":"1493"},{"lat":41.691376883279695,"lon":44.81157823376448,"name":"ევროპის მოედანი","name_en":"Europe Square","id":"1495"},{"lat":41.67983277533525,"lon":44.8706193521738,"name":"მოსკოვის გამზირი # 25","name_en":"Moscow Avenue  # 25","id":"1496"},{"lat":41.67977919114104,"lon":44.87182468743189,"name":"მოსკოვის გამზირი # 25 (მოპირდაპირედ)","name_en":"Opposite to Moscow Avenue # 25","id":"1498"},{"lat":41.7260170566964,"lon":44.75933964905106,"name":"ვაკელის ქუჩა #9","name_en":"Vakeli Street #9","id":"1499"},{"lat":41.72825728934398,"lon":44.75923934672337,"name":"რესპუბლიკური საავადმყოფო","name_en":"Republican Hospital","id":"1500"},{"lat":41.72924400000026,"lon":44.76377400000073,"name":"ტაშკენტის ქუჩა","name_en":"Tasjkenti Street","id":"1501"},{"lat":41.783257328917756,"lon":44.78200160294304,"name":"ბელიაშვილის ქუჩა #40 მოპირდაპირედ","name_en":"Opposite to Beliashvili Street #40","id":"1505"},{"lat":41.786228999992446,"lon":44.78001700000071,"name":"ბელიაშვილისა და ბალანჩინის ქუჩების გადაკვეთა","name_en":"Cross of Beliashvili and Balanchivadze Streets, Sheshelidze side","id":"1506"},{"lat":41.7898088317218,"lon":44.80345500238967,"name":"ქერჩის ქუჩა #1","name_en":"Gldani Call Center (Kerchi Street)","id":"1507"},{"lat":41.792769909220745,"lon":44.80658220744913,"name":"იპოლიტოვ-ივანოვის ქუჩა","name_en":"Ipolitov-Ivanovi Street","id":"1508"},{"lat":41.794359999991364,"lon":44.80992400000061,"name":"ვასაძის ქუჩა ","name_en":"Vasadze Street","id":"1509"},{"lat":41.80876477967424,"lon":44.83541205722419,"name":"გლდანის ტბა","name_en":"Gldani Lake","id":"1511"},{"lat":41.80776699998949,"lon":44.83497200000053,"name":"გლდანის VII მ/რ #24","name_en":"Gldani, Microdistrict VII, #24","id":"1512"},{"lat":41.8062139999897,"lon":44.83346900000054,"name":"გლდანის VII მ/რ","name_en":"Gldani VII Microdistrict","id":"1513"},{"lat":41.80373199999001,"lon":44.83126600000055,"name":"ჯაბიძის ქუჩა","name_en":"Jabidze Street","id":"1514"},{"lat":41.8018265629475,"lon":44.82796390751817,"name":"გლდანის V მ/რ","name_en":"Gldani V Microdistrict","id":"1515"},{"lat":41.80045518712168,"lon":44.824834120910246,"name":"ვარდების რევოლუციის პარკი","name_en":"Rose Revolution park","id":"1516"},{"lat":41.79671525239493,"lon":44.82089681780306,"name":"ომის გმირების ქუჩა","name_en":"War Heros Street","id":"1517"},{"lat":41.79529584971592,"lon":44.81970076596451,"name":"სამამულო ომის გმირების ქუჩა","name_en":"Heros of Worl War II Street","id":"1518"},{"lat":41.80794507840354,"lon":44.83312558025379,"name":"გლდანის VIII მ/რ #29","name_en":"Gldani III Microdistrict #29","id":"1519"},{"lat":41.80579799998973,"lon":44.831252000000546,"name":"გლდანის VIII მ/რ","name_en":"Gldani, Microdistrict VIII","id":"1520"},{"lat":41.80480810007714,"lon":44.83045522202467,"name":"ტიულნევის ქუჩა","name_en":"Tiulnevi Street","id":"1521"},{"lat":41.80286199999011,"lon":44.827266000000556,"name":"გლდანის VI მ/რ","name_en":"Gldani, Microdistrict VI","id":"1522"},{"lat":41.797789116586415,"lon":44.82010493221723,"name":"სამამულო ომის გმირების ქუჩა","name_en":"World War II Heroes Street","id":"1523"},{"lat":41.79541199999116,"lon":44.81801500000059,"name":"გლდანის II მ/რ","name_en":"Gldani, Microdistrict II","id":"1524"},{"lat":41.792511999991575,"lon":44.81549900000059,"name":"მ/ს ახმეტელის თეატრი (მოპირდაპირედ)","name_en":"Opposite to Metro Station Akhmeteli Theatre","id":"1525"},{"lat":41.79363267921632,"lon":44.81180985334704,"name":"გლდანი, მ/რ \"ა\", #70","name_en":"Gldani, Microdistrict \"A\", #70","id":"1526"},{"lat":41.79498799999126,"lon":44.80871200000061,"name":"ქერჩის ქუჩა #6","name_en":"Kerchi Street #6","id":"1527"},{"lat":41.79259599999156,"lon":44.80618400000063,"name":"იპოლიტოვ-ივანოვის ქუჩა","name_en":"Ipolitov-Ivanovi Street","id":"1528"},{"lat":41.78961099999198,"lon":44.80294000000064,"name":"ქერჩის ქუჩა #1-ის მოპირდაპირედ","name_en":"Opposite to Kerchi Street #1","id":"1529"},{"lat":41.78637499999243,"lon":44.7795280000007,"name":"ბელიაშვილისა და ბალანჩინის ქუჩების გადაკვეთა","name_en":"Cross of Beliashvili and Balanchivadze Streets, Aghmashenebeli side","id":"1531"},{"lat":41.783223999992806,"lon":44.781763000000694,"name":"ბელიაშვილის ქუჩა#40","name_en":"Beliashvili Street #40","id":"1532"},{"lat":41.78007999999323,"lon":44.779613000000694,"name":"ბიოქიმიის ლაბორატორია","name_en":"Biochemistry Laboratory","id":"1534"},{"lat":41.78000939519666,"lon":44.77880247676811,"name":"ბიოქიმიის ლაბორატორია","name_en":"Opposite toBiochemistry Laboratory","id":"1535"},{"lat":41.7875159999922,"lon":44.77382800000073,"name":"ამერიკის შეერთებული შტატების საელჩო","name_en":"Embassy of United States of America","id":"1537"},{"lat":41.72398662671277,"lon":44.731207303871734,"name":"მ/ს ვაჟა-ფშაველა","name_en":"Metro Station Vazha Pshavela","id":"1538"},{"lat":41.69074358687314,"lon":44.86670727359342,"name":"აეროდრომის ქუჩა","name_en":"Aerodrome Street","id":"1541"},{"lat":41.69408136388247,"lon":44.86309767123534,"name":"შანდორ პეტეფის ქუჩა #6","name_en":"Sh. Petefi Street #6","id":"1542"},{"lat":41.69932100000436,"lon":44.85376700000044,"name":"ვაზისუბნის დასახლება #21ა მოპირდაპირედ","name_en":"Opposite to Vazisubani Settlement #21a","id":"1543"},{"lat":41.701746000004064,"lon":44.85062200000044,"name":"ვაზისუბნის IV მ/რ  I კვ. მე-4 კორპუსი","name_en":"Vazisubani, Microdistrict 4, Block 1, #4","id":"1545"},{"lat":41.704740000003646,"lon":44.84921800000045,"name":"წმინდა ”ცხრა ყმა კოლაელთა” სახელობის ეკლესია”","name_en":"Saint Tskhra Kma Kolaeli Church","id":"1548"},{"lat":41.69918900000438,"lon":44.85391600000044,"name":"ვაზისუბნის დასახლება #21ა","name_en":"Vazisubani Settlement #21a","id":"1549"},{"lat":41.693903575600295,"lon":44.86306705673527,"name":"შანდორ პეტეფის ქუჩა #6 ","name_en":"Opposite toSh. Petefi Street #6","id":"1551"},{"lat":41.69073769622558,"lon":44.86653655230966,"name":"აეროდრომის ქუჩა","name_en":"Opposite to Aerodrome Street","id":"1552"},{"lat":41.689070904514544,"lon":44.84324977796779,"name":"შერვაშიძის ჩიხი","name_en":"Shervashidze Deadlock","id":"1553"},{"lat":41.68567983553983,"lon":44.870624220783334,"name":"ჯავახეთის ქუჩა #1","name_en":"Javakheti Street #1","id":"1555"},{"lat":41.68919689721518,"lon":44.87472408979693,"name":"კალოუბნის #12-ის პირდაპირ","name_en":"Opposite to Kaloubanis Street #12","id":"1556"},{"lat":41.690379000005635,"lon":44.878744000000346,"name":"ფანასკერტელის ქუჩა","name_en":"Panaskerteli Street","id":"1557"},{"lat":41.69355540512024,"lon":44.87713685475784,"name":"ვარკეთილის ზ/პ #47 კორპუსი","name_en":"Varketili z/p, Building #47","id":"1558"},{"lat":41.69486319329404,"lon":44.87802316381212,"name":"ვარკეთილის ზ/პ #1","name_en":"Varketili z/p #1","id":"1559"},{"lat":41.69560415283348,"lon":44.88117143144376,"name":"ვარკეთილის ზ/პ #4 კორპუსი","name_en":"Varketili z/p, Building  #4","id":"1560"},{"lat":41.69702200000469,"lon":44.88197300000036,"name":"ვარკეთილის ზ/პ #22 მოპირდაპირედ","name_en":"Opposite to Varketili z/p #22","id":"1561"},{"lat":41.69847453597313,"lon":44.88128854739579,"name":"ივერის ღვთისმშობლის ხატის სახელობის ეკლესია","name_en":"Iveri Mother of God's Icon Church","id":"1563"},{"lat":41.7077605010444,"lon":44.879814019761824,"name":"ვარკეთილის IV მ/რ-ის #421","name_en":"Varketili, Microdistrict IV, #421","id":"1564"},{"lat":41.70547463595883,"lon":44.88291936418289,"name":"ვარკეთილი 3-ის IIIა მ/რ, #319ა","name_en":"Varketili, Microdistrict IIIa, #319a","id":"1565"},{"lat":41.699882640412845,"lon":44.88182368761295,"name":"ვარკეთილი 3-ის II მ/რ 28კორპუსი","name_en":"Varketili3, Microdistrict II, Building 28","id":"1566"},{"lat":41.702743737237164,"lon":44.88094684444119,"name":"სუხიშვილის მოედანი","name_en":"Sukhishvili Street","id":"1567"},{"lat":41.696831251865106,"lon":44.881852178914656,"name":"ვარკეთილის ზ/პ #22","name_en":"Varketili z/p #22","id":"1568"},{"lat":41.69582700000489,"lon":44.881459000000355,"name":"ვარკეთილის ზ/პ #4","name_en":"Varketili z/p #4","id":"1569"},{"lat":41.69370899336216,"lon":44.8771845692041,"name":"ხომლელის ქუჩა","name_en":"Khomleli Street","id":"1571"},{"lat":41.69174300000543,"lon":44.87798300000036,"name":"თრიალეთის ქუჩა #38","name_en":"Trialeti Street #38","id":"1572"},{"lat":41.68926965469469,"lon":44.87490052646287,"name":"კალოუბნის ქუჩა #12","name_en":"Kaloubani Street #12","id":"1573"},{"lat":41.689646499945,"lon":44.871980231489005,"name":"კალოუბნის ქუჩა #4","name_en":"Kaloubani Street #4","id":"1574"},{"lat":41.68610300000623,"lon":44.861399000000404,"name":"კახეთის გზატკეცილი #3ა ","name_en":"Opposite to Kakheti Highway #3a","id":"1575"},{"lat":41.69879160539801,"lon":44.88840504586992,"name":"დამპალოს სასაფლაო","name_en":"Dampalo Cemetary","id":"1577"},{"lat":41.789486616279206,"lon":44.800928458598605,"name":"გლდანი-ნაძალადევის რაიონის გამგეობა","name_en":"Gamgeoba of Gldani-Nadzaladevi District","id":"1601"},{"lat":41.793321903378924,"lon":44.80093718067589,"name":"კონიაკის დასახლება","name_en":"Koniaki Settlement","id":"1602"},{"lat":41.79553986570022,"lon":44.80082876929142,"name":"ილორის ქუჩა","name_en":"Ilori Street","id":"1603"},{"lat":41.79714562108558,"lon":44.80029886241982,"name":"ზარზმის ქუჩა","name_en":"Zarzma Street","id":"1604"},{"lat":41.799254999990595,"lon":44.799181000000644,"name":"სინათლის სტადიონი ","name_en":"Light Stadium","id":"1605"},{"lat":41.80098037019258,"lon":44.798445525251,"name":"ივანოვის ქუჩა","name_en":"Ivanovi Street","id":"1606"},{"lat":41.804791999989845,"lon":44.800021000000655,"name":"ჯანჯღავას ქუჩა","name_en":"Janjgava Street","id":"1607"},{"lat":41.80685832388407,"lon":44.8000320819108,"name":"ავჭალის სასაფლაო","name_en":"Avchala Cemetery","id":"1608"},{"lat":41.81952699998782,"lon":44.79450200000067,"name":"#118 საჯარო სკოლა ","name_en":"#118 Public School","id":"1609"},{"lat":41.811062999989,"lon":44.79910800000065,"name":"ფოცხიშვილის ქუჩა","name_en":"Potskhishvili Street","id":"1612"},{"lat":41.8227578752516,"lon":44.79199822378632,"name":"ზემო ავჭალის სასაფლაო","name_en":"Zemo Avchala Cemetery","id":"1613"},{"lat":41.82553399998699,"lon":44.7877960000007,"name":"ვარდევანის ქუჩა","name_en":"Vardevani Street","id":"1627"},{"lat":41.82489759068045,"lon":44.78601626927106,"name":"#120 საჯარო სკოლა ","name_en":"#120 Public School","id":"1628"},{"lat":41.82538499998698,"lon":44.78216900000072,"name":"ანდრონიკაშვილის ქუჩა #111","name_en":"Andronikashvili Street #111","id":"1630"},{"lat":41.82670399998689,"lon":44.779443000000725,"name":"ბარისახოს ქუჩა","name_en":"Barisakho Street","id":"1631"},{"lat":41.82772663312154,"lon":44.77566432141426,"name":"ზემო ავჭალა","name_en":"Zemo Avchala","id":"1632"},{"lat":41.82766778634422,"lon":44.77543860244318,"name":"ზემო ავჭალა","name_en":"Zemo Avchala","id":"1635"},{"lat":41.82666499998686,"lon":44.779210000000724,"name":"ბარისახოს ქუჩა","name_en":"Barisakho Street","id":"1636"},{"lat":41.823533999987234,"lon":44.78469700000071,"name":"უწერის ქუჩა","name_en":"Utsera Street","id":"1637"},{"lat":41.82478163165128,"lon":44.786092396025964,"name":"#120 საჯარო სკოლა ","name_en":"#120 Public School","id":"1638"},{"lat":41.82425199065941,"lon":44.79016876900477,"name":"ჭრებალოს ქუჩა","name_en":"Chrebalo Street","id":"1640"},{"lat":41.822944580092695,"lon":44.79147658842912,"name":"ზემო ავჭალის სასაფლაო","name_en":"Zemo Avchala Cemetery","id":"1641"},{"lat":41.819619762130316,"lon":44.7942732552571,"name":"#118 საჯარო სკოლა","name_en":"#118 Public School","id":"1642"},{"lat":41.81787201075736,"lon":44.79539539875618,"name":"ავჭალა","name_en":"Avchala","id":"1643"},{"lat":41.815728547567005,"lon":44.796410538763,"name":"#64 საბავშვო ბაღი","name_en":"#64 kindergarten","id":"1644"},{"lat":41.81133799998896,"lon":44.798577000000655,"name":"ფოცხიშვილის ქუჩა","name_en":"Potskhishvili Street","id":"1645"},{"lat":41.80746660290736,"lon":44.799697554686865,"name":"ავჭალის სასაფლაო","name_en":"Avchala Cemetery","id":"1646"},{"lat":41.804764999989835,"lon":44.799706000000654,"name":"ჯანჯღავას ქუჩა","name_en":"Janjgava Street","id":"1647"},{"lat":41.801828704269305,"lon":44.79821792090875,"name":"სარაჯიშვილისა და ლაზოს ქუჩის გადაკვეთის მოპირდაპირედ","name_en":"Opposite to Saradjishvili and Ivanov Streets intersection","id":"1648"},{"lat":41.798911999990636,"lon":44.79896700000065,"name":"სინათლის სტადიონი ","name_en":"Light Stadium","id":"1649"},{"lat":41.79560999999113,"lon":44.80042000000065,"name":"ილორის ქუჩა","name_en":"Ilori Street","id":"1650"},{"lat":41.79365699999141,"lon":44.80058300000065,"name":"კონიაკის დასახლება","name_en":"Koniaki Settlement","id":"1651"},{"lat":41.788223341511646,"lon":44.80032091890761,"name":"ქერჩის ქუჩა","name_en":"Kerchi Street","id":"1653"},{"lat":41.67221200000812,"lon":44.83475300000048,"name":"#4 სამშობიარო სახლი","name_en":"#4 Maternity Hospital","id":"1658"},{"lat":41.67152098692,"lon":44.83711286569029,"name":"გორგასლის ქუჩა #101","name_en":"Gorgasali Street #101","id":"1659"},{"lat":41.67076178574559,"lon":44.84376923863955,"name":"გორგასლის ქუჩა #111","name_en":"Gorgasali Street #111","id":"1660"},{"lat":41.67046700000832,"lon":44.84603100000045,"name":"გორგასლის ქუჩა #113","name_en":"Gorgasali Street #113","id":"1661"},{"lat":41.66981428681934,"lon":44.85262921197928,"name":"გორგასლის ქუჩა #115","name_en":"Gorgasali Street #115","id":"1662"},{"lat":41.66559839945648,"lon":44.869515369938945,"name":"გამწვანება კრწანისი","name_en":"Greenery Krtsanisi","id":"1663"},{"lat":41.65943937998446,"lon":44.89172377967475,"name":"ქვემო ფონიჭალა","name_en":"Kvemo Ponichala","id":"1665"},{"lat":41.65768400001013,"lon":44.8951840000003,"name":"#127 საჯარო სკოლა","name_en":"#127 Public School","id":"1666"},{"lat":41.65565470730204,"lon":44.89906319534155,"name":"საქართველოს ბიზნესის აკადემია","name_en":"Business Academy of Georgia","id":"1667"},{"lat":41.6542330000106,"lon":44.90170200000028,"name":"თბილისის ღია სასწავლო უნივერსიტეტის","name_en":"Tbilisi Open Educational University","id":"1668"},{"lat":41.63367200001019,"lon":44.91885499999917,"name":"სოფელი სოღანლუღის გადასახვევის მოპირდაპირედ","name_en":"Opposite to Village Soghanlugha Turnout","id":"1669"},{"lat":41.63383800001334,"lon":44.918918000000225,"name":"სოღანლუღის გადასახვევი","name_en":"Soghanlughi Turnout","id":"1670"},{"lat":41.64150115031358,"lon":44.91371871509746,"name":"რუსთავის გზატკეცილი # 50","name_en":"Rustavi Highway # 50","id":"1671"},{"lat":41.63635298342403,"lon":44.917263780730664,"name":"გულბანის ქუჩა (ჩრდილოეთის ) მოპირდაპირედ","name_en":"Opposite to Gulbani Street (north)","id":"1672"},{"lat":41.6447759570477,"lon":44.91178421160218,"name":"ქვემო ფონიჭალის ცენტრი","name_en":"Kvemo Ponichala Center","id":"1676"},{"lat":41.64474955293929,"lon":44.911549433568986,"name":"ქვემო ფონიჭალის ცენტრი","name_en":"Kivemo Ponichala Center","id":"1687"},{"lat":41.64622030830394,"lon":44.910620849060756,"name":"მარნეულის ქუჩა","name_en":"Marneuli Street","id":"1688"},{"lat":41.646311257367195,"lon":44.9107694387037,"name":"მარნეულის ქუჩა","name_en":"Marneuli Street","id":"1689"},{"lat":41.650788000011005,"lon":44.90757900000026,"name":"რუსთავის გზატკეცილი #34","name_en":"Rustavi Highway #34","id":"1690"},{"lat":41.65429400001053,"lon":44.90189600000028,"name":"თბილისის ღია სასწავლო უნივერსიტეტი","name_en":"Tbilisi Open Educational University","id":"1691"},{"lat":41.65577694606554,"lon":44.89925743182565,"name":"საქართველოს ბიზნესის აკადემია","name_en":"Business Academy of Georgia","id":"1692"},{"lat":41.65774200001014,"lon":44.89541000000029,"name":"#127 საჯარო სკოლა","name_en":"#127 Public School","id":"1693"},{"lat":41.65957548046433,"lon":44.891912462804854,"name":"ქვემო ფონიჭალა","name_en":"Kvemo Ponichala","id":"1694"},{"lat":41.66008232107298,"lon":44.88801232977919,"name":"გორგასალის ქუჩა #54-54ა","name_en":"Gorgasali Street #54-54a","id":"1695"},{"lat":41.665514071237304,"lon":44.8693066992046,"name":"გამწვანება კრწანისი","name_en":"Greenery Krtsanisi","id":"1696"},{"lat":41.669885838107724,"lon":44.85278662712596,"name":"გორგასლის ქუჩა #115","name_en":"Opposite to Gorgasali Street #115","id":"1697"},{"lat":41.67062900000835,"lon":44.846129000000445,"name":"გორგასლის ქუჩა #113","name_en":"Opposite to Gorgasali Street #113","id":"1698"},{"lat":41.67095694843512,"lon":44.84308830025315,"name":"გორგასლის ქუჩა #111-ის მოპირდაპირედ","name_en":"Opposite to Gorgasali Street #111","id":"1699"},{"lat":41.67161349188735,"lon":44.83730948489125,"name":"გორგასლის ქუჩა #101-ის მოპირდაპირედ","name_en":"Opposite to Gorgasali Street #101","id":"1700"},{"lat":41.67243300000807,"lon":44.83481700000048,"name":"#4 სამშობიარო სახლი","name_en":"#4 Maternity Hospital","id":"1701"},{"lat":41.688400551475944,"lon":44.841461719893225,"name":"მ/ს ისანი (აწყურის ქუჩა)","name_en":"Metro Station Isani (Atskuri Street)","id":"1702"},{"lat":41.6497100000112,"lon":44.90427500000027,"name":"სურგულაძის ქუჩა #41","name_en":"Surguladze Street  #41","id":"1711"},{"lat":41.65899998370747,"lon":44.88955241746652,"name":"გორგასალის ქუჩა #54-54ა მოპირდაპირედ","name_en":"Opposite to Gorgasali Street #54-54a","id":"1712"},{"lat":41.698977000004405,"lon":44.85671200000043,"name":"ვარკეთილის IV მ/რ, III კვ. #11","name_en":"Varketili Microdistrict IV, Block III, #11","id":"1713"},{"lat":41.69887300000446,"lon":44.856387000000424,"name":"ვარკეთილის IV მ/რ, III კვ. #11 მოპირდაპირედ","name_en":"Opposite to Varketili Microdistrict IV, Block III, #11","id":"1715"},{"lat":41.70804153746107,"lon":44.840395651559916,"name":"ვაზისუბნის II მ/რ #23","name_en":"Vazisubani Microdistrict II, #23","id":"1716"},{"lat":41.70739813955538,"lon":44.84190830642575,"name":"ვაზისუბნის II მ/რ #19","name_en":"Vazisubani Microdistrict II, #19","id":"1717"},{"lat":41.707339000003316,"lon":44.84184000000048,"name":"ვაზისუბნის II მ/რ #19 მოპირდაპირედ","name_en":"Opposite to Vazisubani Microdistrict II, #19","id":"1718"},{"lat":41.7064280000034,"lon":44.84575900000046,"name":"163-მე საჯარო სკოლა","name_en":"#163 Public School","id":"1719"},{"lat":41.70681400000334,"lon":44.84609200000047,"name":"163-მე საჯარო სკოლა","name_en":"#163 Public School","id":"1720"},{"lat":41.70592784615627,"lon":44.84886458149795,"name":"ვაზისუბნის III მ/რ I კვ. #6 მოპირდაპირედ","name_en":"Opposite to Vazisubani Microdistrict III, Block I, #6","id":"1721"},{"lat":41.70582226834399,"lon":44.848703130157205,"name":"ვაზისუბნის III მ/რ I კვ. #6","name_en":"Vazisubani Microdistrict III, Block I, #6","id":"1722"},{"lat":41.7026590593467,"lon":44.8048223544203,"name":"ტოლსტოის ქუჩა","name_en":"Tolstoi Street","id":"1724"},{"lat":41.70598976727205,"lon":44.80564306319403,"name":"#31 საჯარო სკოლა","name_en":"#31 Public School","id":"1725"},{"lat":41.710422633271065,"lon":44.804002459113256,"name":"ჩიტაიას მ-ნი","name_en":"Chitaia Square","id":"1726"},{"lat":41.716333000002024,"lon":44.80258900000061,"name":"ჩიტაიას ქუჩა #37","name_en":"Chitaia Street #37","id":"1727"},{"lat":41.718171670911126,"lon":44.80250739348782,"name":"ც. დადიანის ქუჩა #1","name_en":"Tsotne Dadiani Stree #1","id":"1728"},{"lat":41.7237521789399,"lon":44.80013689949689,"name":"ცოტნე დადიანის ქუჩა #39","name_en":"Tsotne Dadiani Street #39","id":"1729"},{"lat":41.727470034105316,"lon":44.799600889967515,"name":"ურიდიას ქუჩა","name_en":"Uridia Street","id":"1730"},{"lat":41.72904868219992,"lon":44.798625243763894,"name":"ცოტნე დადიანის ქუჩა #87","name_en":"Tsotne Dadiani Street #87","id":"1731"},{"lat":41.73270334546249,"lon":44.79744291873955,"name":"მ/ს ნაძალადევი","name_en":"Opposite to Metro Station Nadzaladevi","id":"1732"},{"lat":41.73677999999921,"lon":44.79585500000063,"name":"ც. დადიანის ქუჩა #3 ","name_en":"Tsotne Dadiani Street #3","id":"1733"},{"lat":41.74235799999843,"lon":44.79395800000064,"name":"ცოტნე დადიანის ქუჩა #259","name_en":"Tsotne Dadiani Street #259","id":"1735"},{"lat":41.74602917981044,"lon":44.792436281417764,"name":"წიწამურის ქუჩა","name_en":"Tsitsamuri Street","id":"1736"},{"lat":41.74610599999793,"lon":44.792084000000656,"name":"#11 რუსული საჯარო სკოლა","name_en":"#11 Russian Public School","id":"1738"},{"lat":41.74293399999837,"lon":44.793451000000644,"name":"ცოტნე დადიანის ქუჩა #148","name_en":"Tsotne Dadiani Street #148","id":"1739"},{"lat":41.73969910424882,"lon":44.79454358184228,"name":"ცოტნე დადიანის ქუჩა #138/136","name_en":"Tsotne Dadiani Street #138/136","id":"1740"},{"lat":41.73767408837112,"lon":44.795265358855374,"name":"#10 საჯარო სკოლა ","name_en":"#10 Public School","id":"1741"},{"lat":41.73275804948059,"lon":44.797212356775816,"name":"მ/ს ნაძალადევი","name_en":"Metro Station Nadzaladevi","id":"1742"},{"lat":41.729735010000134,"lon":44.79819869925499,"name":"ცოტნე დადიანის ქუჩა #30","name_en":"Tsotne Dadiani Street #30","id":"1743"},{"lat":41.72703690828146,"lon":44.79904795403031,"name":"ცოტნე დადიანის ქუჩა #22/24","name_en":"Tsotne Dadiani Street #22/24","id":"1744"},{"lat":41.72390850710241,"lon":44.79988711299906,"name":"რკინიგზის გადასასვლელი ხიდი","name_en":"near Railway Passage Bridge","id":"1745"},{"lat":41.71810998781472,"lon":44.80235928096994,"name":"ც. დადიანის ქუჩა #1","name_en":"Tsotne Dadiani Street #1","id":"1746"},{"lat":41.71651900000207,"lon":44.8024350000006,"name":"ჩიტაიას ქუჩა #37","name_en":"Opposite to Chitaia Street #37","id":"1747"},{"lat":41.71260348526999,"lon":44.803320354803546,"name":"ჩიტაიას ქ. #4 (მოთხოვნით)","name_en":"Chitaia Street #4","id":"1748"},{"lat":41.75499386797769,"lon":44.76496605425468,"name":"გოძიაშვილის ქუჩა #51","name_en":"Godziashvili Street #51","id":"1752"},{"lat":41.7550919999967,"lon":44.763551000000746,"name":"გოძიაშვილის ქუჩა #63","name_en":"Godziashvili Street #63","id":"1753"},{"lat":41.75337653626637,"lon":44.76043068778248,"name":"ვაშლიჯვრის დასახლების II ზონა #4ვ","name_en":"Vashlijvari Settlement Zone II #4v","id":"1754"},{"lat":41.75145229884394,"lon":44.7619220281555,"name":"ვაშლიჯვრის დასახლების III ზონა #8 ","name_en":"Vashlijvari Settlement Zone III #8","id":"1755"},{"lat":41.74921213889042,"lon":44.763896105163816,"name":"ვაშლიჯვრის დასახლების IV ზონა #11 ","name_en":"Vashlijvari Settlement Zone IV #11","id":"1756"},{"lat":41.75429044190775,"lon":44.765400974713984,"name":"გოძიაშვილის ქ. #14 კ.","name_en":"Godziashvili Street #14","id":"1757"},{"lat":41.75531241665734,"lon":44.76834693970343,"name":"სარაჯიშვილის ქუჩა #12","name_en":"Sarajishvili Street #12","id":"1758"},{"lat":41.70998124907863,"lon":44.80449556869478,"name":"გრანელის ქუჩა #3","name_en":"Graneli Street #3","id":"1759"},{"lat":41.71037267898495,"lon":44.807770987364876,"name":"გრანელის ქუჩა #19","name_en":"Graneli Street #19","id":"1760"},{"lat":41.71013322820263,"lon":44.80829287171007,"name":"ლამის ქუჩა #3","name_en":"Lami Street #3","id":"1761"},{"lat":41.70779500000323,"lon":44.81107300000056,"name":"სააკაძის ქუჩა #1","name_en":"Saakadze Street #1","id":"1762"},{"lat":41.70904900000306,"lon":44.81974100000053,"name":"გუმათის ქუჩა #37/2","name_en":"Gumati Street #37/2","id":"1765"},{"lat":41.71122200000277,"lon":44.820316000000545,"name":"მნათობის ქუჩა","name_en":"Mnatobi Street","id":"1766"},{"lat":41.71144500000276,"lon":44.82214400000054,"name":"მნათობის ქუჩა #73","name_en":"Mnatobi Street #73","id":"1767"},{"lat":41.71128963177151,"lon":44.820198217717,"name":"შრომის ქუჩა # 67","name_en":"Shroma Street #67","id":"1768"},{"lat":41.70909093011112,"lon":44.81952208911883,"name":"გუმათის ქუჩა #37/2-ის მოპირდაპირედ","name_en":"Opposite to Gumati Street #37/2","id":"1769"},{"lat":41.71047800000284,"lon":44.807439000000585,"name":"გრანელის ქუჩა #26","name_en":"Graneli Street #26","id":"1773"},{"lat":41.71012600000294,"lon":44.8044990000006,"name":"გრანელის ქუჩა #2","name_en":"Graneli Street #2","id":"1774"},{"lat":41.80058099999045,"lon":44.822528000000574,"name":"ლომისის წმინდა გიორგის სახელობის ეკლესია","name_en":"Lomisi Saint George Church","id":"1775"},{"lat":41.70895700000305,"lon":44.711506000000874,"name":"წყნეთის მე-10კმ","name_en":"Tskneti 10km","id":"1778"},{"lat":41.68063400000691,"lon":44.69275400000091,"name":"ზემო წყნეთი","name_en":"Zemo Tskneti","id":"1779"},{"lat":41.68261400000666,"lon":44.69105300000092,"name":"რუსთაველის ქუჩა #35","name_en":"Tskneti, Rustaveli Street #35","id":"1780"},{"lat":41.68249500000664,"lon":44.69107800000093,"name":"რუსთაველის ქუჩა #40","name_en":"Rustaveli Street #40","id":"1781"},{"lat":41.685282589731614,"lon":44.69505790578296,"name":"რუსთაველის ქუჩა #28-ის მოპირდაპირედ","name_en":"Tskneti, Opposite to Rustaveli Street #28","id":"1782"},{"lat":41.68518619717341,"lon":44.69505609109358,"name":"რუსთაველის ქუჩა #28 ","name_en":"Tskneti, Rustaveli Street #28","id":"1783"},{"lat":41.68876100000583,"lon":44.68892900000093,"name":"გურამიშვილის ქუჩა #18 ","name_en":"Guramishvili Street #18","id":"1785"},{"lat":41.68789064028322,"lon":44.6944031929228,"name":"გურამიშვილის ქუჩა #5 ","name_en":"Guramishvili Street #5","id":"1786"},{"lat":41.688307246489664,"lon":44.69661477303043,"name":"რუსთაველის ქუჩა #10ა-ის მოპირდაპირედ","name_en":"Tskneti, Opposite to Rustaveli Street #10a","id":"1788"},{"lat":41.688340623495975,"lon":44.69670218651804,"name":"რუსთაველის ქუჩა #10ა","name_en":"Tskneti, Rustaveli Street #10a","id":"1789"},{"lat":41.69434955588461,"lon":44.694180122514204,"name":"დავით აღმაშენებლის სახელობის ეკლესია","name_en":"Davit Agmashenebeli Church","id":"1790"},{"lat":41.69437258428607,"lon":44.69428580198359,"name":"დავით აღმაშენებლის სახელობის ეკლესია","name_en":"Opposite to Davit Agmashenebeli Church","id":"1791"},{"lat":41.69581600000486,"lon":44.69891200000091,"name":"წყნეთის ცენტრი","name_en":"Tskneti Center","id":"1792"},{"lat":41.697223408989416,"lon":44.700532963022674,"name":"მაია წყნეთელის ძეგლი","name_en":"Maia Tskneteli Monument","id":"1794"},{"lat":41.697074814947335,"lon":44.70061807792252,"name":"მაია წყნეთელის ძეგლი","name_en":"Opposite to Maia Tskneteli Monument","id":"1795"},{"lat":41.697314000004575,"lon":44.70483600000089,"name":"ამილახვრის და აღმაშენებლისს ქ-ების გადაკვეთა","name_en":"Amilakhvari Street and Aghmashenebeli Street intersection","id":"1799"},{"lat":41.699899000004294,"lon":44.704632000000885,"name":"რუსთაველის და ამილახვრის ქ-ების გადაკვეთა","name_en":"Rustaveli Street and Amilakhvari Street intersection","id":"1800"},{"lat":41.69987500000428,"lon":44.705092000000896,"name":"წყნეთი, ამილახვარის ქუჩა #10","name_en":"Tskneti, Rustaveli Street #10","id":"1801"},{"lat":41.70311393264747,"lon":44.70072270817402,"name":"წმინდა მარიამის სახელობის ეკლესია","name_en":"Tskneti, Saint Maria Temple","id":"1802"},{"lat":41.708876000002995,"lon":44.711401000000876,"name":"წყნეთის მე-10კმ","name_en":"Tskneti 10th km","id":"1803"},{"lat":41.712516000002516,"lon":44.721020000000856,"name":"სტუდქალაქი კორპუსი №1","name_en":"Opposite to students' hostel Building #1","id":"1804"},{"lat":41.72806500000045,"lon":44.80185700000061,"name":"ჩხიკვაძის ქუჩა","name_en":"Chkhikvadze Street","id":"1805"},{"lat":41.72864273207528,"lon":44.80418837426957,"name":"მანაგაძის ქუჩა","name_en":"Managadze Street","id":"1806"},{"lat":41.72896500000031,"lon":44.80632800000059,"name":"მუშათა ქუჩა","name_en":"Labour Force Street","id":"1807"},{"lat":41.729513126570204,"lon":44.808722285252315,"name":"კახიანის ქუჩა","name_en":"Kakhiani Street","id":"1808"},{"lat":41.72956924974515,"lon":44.81196374158817,"name":"ურიდიას ქუჩა #137","name_en":"Uridia Street #137","id":"1809"},{"lat":41.72959602520394,"lon":44.81508875878421,"name":"ზაქარიაძის ქუჩა","name_en":"Zakariadze Street","id":"1810"},{"lat":41.73031107315069,"lon":44.8188754961005,"name":"ურიდიას ქუჩა #193","name_en":"Uridia Street #193","id":"1811"},{"lat":41.73027500000011,"lon":44.82923100000053,"name":"სამღერეთის ქუჩა","name_en":"Samgereti Street","id":"1812"},{"lat":41.73194099999988,"lon":44.827447000000525,"name":"სამღერეთის ქუჩა #60","name_en":"Samgereti Street #60","id":"1813"},{"lat":41.73406865416647,"lon":44.82505041647238,"name":"წერონისის ქუჩა #188","name_en":"Tseronisi Street #188","id":"1814"},{"lat":41.73447824856798,"lon":44.820485151586894,"name":"წერონისის ქუჩა #160","name_en":"Tseronisi Street #160","id":"1815"},{"lat":41.73489499999947,"lon":44.81611300000056,"name":"მაჩხაანის ქუჩა","name_en":"Machkhaani Street","id":"1816"},{"lat":41.73492007512683,"lon":44.8138631334203,"name":"ბუგეულის ქუჩა","name_en":"Bugeuli Street","id":"1821"},{"lat":41.73480599999948,"lon":44.81574000000056,"name":"წერონისის ქ. #126-ის პირდაპირ","name_en":"Opposite to Tseronisi Street #126","id":"1822"},{"lat":41.73423399999957,"lon":44.82195000000055,"name":"წერონისის ქუჩა #164","name_en":"Tseronisi Street #164","id":"1823"},{"lat":41.733928461254955,"lon":44.82495397882396,"name":"კლდეკარის ქუჩა","name_en":"Kldekari Street","id":"1824"},{"lat":41.73235804593333,"lon":44.824822266456046,"name":"სამღერეთის ქუჩა #38","name_en":"Samgereti Street #38","id":"1825"},{"lat":41.729666186666364,"lon":44.815006858530566,"name":"ზაქარიაძის ქუჩა","name_en":"Zakariadze Street","id":"1827"},{"lat":41.72965146640104,"lon":44.81188134250799,"name":"ურიდიას ქუჩა #137-ის მოპირდაპირედ","name_en":"Opposite to Uridia Street #137","id":"1828"},{"lat":41.72952022025355,"lon":44.80834593578254,"name":"#8 საჯარო სკოლა ","name_en":"#8 Public School","id":"1829"},{"lat":41.729061485529876,"lon":44.80623782085075,"name":"მუშათა ქუჩა","name_en":"Labour Force Street","id":"1830"},{"lat":41.72874952268911,"lon":44.80404903432471,"name":"მანაგაძის ქუჩა","name_en":"Managadze Street","id":"1831"},{"lat":41.72814300000041,"lon":44.8018210000006,"name":"ჩხიკვაძის ქუჩა","name_en":"Chkhikvadze Street","id":"1832"},{"lat":41.72753600000051,"lon":44.79962200000062,"name":"ხიმშიაშვილის ქუჩა","name_en":"Khimshiashvili Street","id":"1833"},{"lat":41.690454000005566,"lon":44.8339650000005,"name":"დოესის ქუჩა","name_en":"Doesi Street","id":"1834"},{"lat":41.680184000007024,"lon":44.95748500000012,"name":"ტერმინალი გაკო","name_en":"Terminali Gako","id":"1836"},{"lat":41.68006300000704,"lon":44.95787500000012,"name":"ტერმინალი გაკო","name_en":"Opposite to Terminali Gako","id":"1837"},{"lat":41.66948100000851,"lon":44.9653610000001,"name":"აეროპორტი","name_en":"Airport","id":"1838"},{"lat":41.69030600000564,"lon":44.84143000000047,"name":"ბუშის ქუჩა #78","name_en":"Bushi Street #78","id":"1840"},{"lat":41.691163364059456,"lon":44.8366090218988,"name":"ბუშის ქუჩა #24","name_en":"Bushi Street #24","id":"1841"},{"lat":41.69057200000561,"lon":44.8338150000005,"name":"დოესის ქუჩა","name_en":"Doesi Street","id":"1842"},{"lat":41.79928299999065,"lon":44.77108200000074,"name":"დიღმის სასწავლო მეურნეობა","name_en":"Digomi Training Farm","id":"1843"},{"lat":41.79605167262491,"lon":44.76995916985258,"name":"მუხათგვერდის ასახვევი","name_en":"Mukhatgverdi Crossing Road","id":"1844"},{"lat":41.721363000001375,"lon":44.77386000000069,"name":"ბახტრიონის ქუჩა #7","name_en":"Bakhtrioni Street #7","id":"1845"},{"lat":41.720758457198876,"lon":44.76957786664907,"name":"ქვემო ბახტრიონი","name_en":"Kvemo Bakhtrioni","id":"1846"},{"lat":41.720881080271376,"lon":44.769747294187745,"name":"ქვემო ბახტრიონი","name_en":"Kvemo Bakhtrioni","id":"1847"},{"lat":41.72047800000147,"lon":44.76774300000071,"name":"ბახტრიონი","name_en":"Bakhtrioni","id":"1848"},{"lat":41.720067275547294,"lon":44.76379806395725,"name":"ბახტრიონის ქუჩა #24","name_en":"Bakhtrioni Street #24","id":"1849"},{"lat":41.719665426679725,"lon":44.760670573945276,"name":"წმინდა ანტონ მარყოფელის სახელობის ეკლესია","name_en":"Saint Anton Martkopeli Church","id":"1851"},{"lat":41.71969872655055,"lon":44.759612827048436,"name":"წმინდა ანტონ მარყოფელის სახელობის ეკლესია","name_en":"Saint Anton Martkopeli Church","id":"1852"},{"lat":41.71867200000177,"lon":44.75959900000073,"name":"ქვემო ფანასკერტელი","name_en":"Kvemo Panaskerteli","id":"1853"},{"lat":41.71890800000166,"lon":44.76368700000072,"name":"ზემო ფანასკერტელი","name_en":"Zemo Panaskerteli","id":"1854"},{"lat":41.718578856681724,"lon":44.76606032139895,"name":"ჯვართამაღლების ეკლესია","name_en":"Jvartamagleba Church","id":"1855"},{"lat":41.71821400000177,"lon":44.768559000000714,"name":"#162 საჯარო სკოლა","name_en":"#162 Public School","id":"1856"},{"lat":41.718990875723215,"lon":44.77073464691274,"name":"იყალთოს გორა #40","name_en":"iyalTos gora #40","id":"1857"},{"lat":41.718285000001785,"lon":44.76862900000071,"name":"#162 საჯარო სკოლა","name_en":"#162 Public School","id":"1858"},{"lat":41.71867952919493,"lon":44.766033290203154,"name":"ჯვართამაღლების ეკლესია","name_en":"Jvartamagleba Church","id":"1859"},{"lat":41.71880600000172,"lon":44.76171400000072,"name":"ფანასკერტელ-ციციშვილის ქუჩა","name_en":"Panaskerteli-Tsitsishvili Street","id":"1860"},{"lat":41.71873300000169,"lon":44.759503000000734,"name":"ქვემო ფანასკერტელი","name_en":"Kvemo Panaskerteli","id":"1861"},{"lat":41.68844489781497,"lon":44.85175544526201,"name":"#74 საჯარო სკოლა","name_en":"#74 Public School","id":"1871"},{"lat":41.69025834037523,"lon":44.85045950450738,"name":"ყარყარაშვილის ქუჩა #25","name_en":"Karkarashvili Street #25","id":"1872"},{"lat":41.69215753087519,"lon":44.848332367363994,"name":"კაკაბეთის ქუჩა","name_en":"kakabeti Street","id":"1873"},{"lat":41.69398867792969,"lon":44.846280326426715,"name":"ყარყარაშვილის ქუჩა #73","name_en":"Karkarashvili Street #73","id":"1874"},{"lat":41.695046081021296,"lon":44.845041244251334,"name":"#103 საჯარო სკოლა","name_en":"#103 Public School","id":"1875"},{"lat":41.69694302896944,"lon":44.844606714230466,"name":"ტვიშის ქუჩა #5","name_en":"Tvishi Street #5","id":"1876"},{"lat":41.69810024804494,"lon":44.84347529557365,"name":"უშაკოვის ქუჩა #8","name_en":"Ushakovi Street #8","id":"1877"},{"lat":41.698441818735134,"lon":44.842078484742274,"name":"უშაკოვის ქუჩა #15","name_en":"Ushakovi Street #15","id":"1878"},{"lat":41.698435000004515,"lon":44.84008400000047,"name":"ყვარლის ქუჩა","name_en":"Kvareli Street","id":"1879"},{"lat":41.697640107789525,"lon":44.840986678882324,"name":"ყვარელის ქუჩა #114","name_en":"Kvareli Street #114","id":"1880"},{"lat":41.696250302982826,"lon":44.84254740180956,"name":"ყვარელის ქუჩა #98","name_en":"Kvareli Street #98","id":"1881"},{"lat":41.69486767212082,"lon":44.844124459017635,"name":"ყვარელის ქუჩა #86","name_en":"Kvareli Street #86","id":"1882"},{"lat":41.69385591952927,"lon":44.84627603463585,"name":"ყარყარაშვილის ქუჩა #80","name_en":"Karkarashvili Street #80","id":"1883"},