<?xml version="1.0" encoding="UTF-8" standalone="yes"?><RouteStops><Stops><Forward>false</Forward><HasBoard>true</HasBoard><Lat>41.68792900000596</Lat><Lon>44.818311000000534</Lon><Name>ორთაჭალა - [1390]</Name><Routes>31:1</Routes><Routes>44:1</Routes><Routes>50:1</Routes><Routes>55:1</Routes><Routes>71:1</Routes><Routes>80:1</Routes><Routes>102:1</Routes><Sequence>0</Sequence><StopId>1390</StopId><Type>bus</Type><Virtual>false</Virtual></Stops><Stops><Forward>false</Forward><HasBoard>true</HasBoard><Lat>41.68333600000655</Lat><Lon>44.82316800000053</Lon><Name>გორგასლის მოედანი - [1388]</Name><Routes>31:1</Routes><Routes>44:1</Routes><Routes>50:1</Routes><Routes>55:1</Routes><Routes>71:1</Routes><Routes>80:1</Routes><Routes>102:1</Routes><Sequence>0</Sequence><StopId>1388</StopId><Type>bus</Type><Virtual>false</Virtual></Stops><Stops><Forward>false</Forward><HasBoard>true</HasBoard><Lat>41.679302000007155</Lat><Lon>44.82480000000052</Lon><Name>ორთაჭალის ქუჩა - [1386]</Name><Routes>31:1</Routes><Routes>44:1</Routes><Routes>50:1</Routes><Routes>55:1</Routes><Routes>71:1</Routes><Routes>80:1</Routes><Routes>102:1</Routes><Sequence>0</Sequence><StopId>1386</StopId><Type>bus</Type><Virtual>false</Virtual></Stops><Stops><Forward>false</Forward><HasBoard>true</HasBoard><Lat>41.68196498716291</Lat><Lon>44.82392765297106</Lon><Name>#72 საჯარო სკოლა - [1387]</Name><Routes>31:1</Routes><Routes>44:1</Routes><Routes>50:1</Routes><Routes>55:1</Routes><Routes>71:1</Routes><Routes>80:1</Routes><Routes>102:1</Routes><Sequence>0</Sequence><StopId>1387</StopId><Type>bus</Type><Virtual>false</Virtual></Stops><Stops><Forward>false</Forward><HasBoard>true</HasBoard><Lat>41.6752767570329</Lat><Lon>44.82190293727581</Lon><Name>კრწანისის ქუჩა #7ა  მოპირდაპირედ - [1383]</Name><Routes>31:1</Routes><Sequence>0</Sequence><StopId>1383</StopId><Type>bus</Type><Virtual>false</Virtual></Stops><Stops><Forward>false</Forward><HasBoard>true</HasBoard><Lat>41.676716000007524</Lat><Lon>44.82393000000051</Lon><Name>კრწანისის ქუჩა #3 მოპირდაპირედ - [1384]</Name><Routes>31:1</Routes><Sequence>0</Sequence><StopId>1384</StopId><Type>bus</Type><Virtual>true</Virtual></Stops><Stops><Forward>false</Forward><HasBoard>true</HasBoard><Lat>41.6748830000077</Lat><Lon>44.81989100000053</Lon><Name>კრწანისის ქუჩა #17ა მოპირდაპირედ - [1381]</Name><Routes>31:1</Routes><Sequence>0</Sequence><StopId>1381</StopId><Type>bus</Type><Virtual>false</Virtual></Stops><Stops><Forward>false</Forward><HasBoard>true</HasBoard><Lat>41.674393000007754</Lat><Lon>44.815467000000545</Lon><Name>კრწანისის ქუჩა #47 მოპირდაპირედ - [1380]</Name><Routes>31:1</Routes><Sequence>0</Sequence><StopId>1380</StopId><Type>bus</Type><Virtual>false</Virtual></Stops><Stops><Forward>false</Forward><HasBoard>true</HasBoard><Lat>41.6707810000083</Lat><Lon>44.81363700000055</Lon><Name>კრწანისის ქუჩა #63  - [1377]</Name><Routes>31:1</Routes><Sequence>0</Sequence><StopId>1377</StopId><Type>bus</Type><Virtual>false</Virtual></Stops><Stops><Forward>false</Forward><HasBoard>true</HasBoard><Lat>41.670900000008324</Lat><Lon>44.815456000000545</Lon><Name>კრწანისის ქუჩა #53 მოპირდაპირედ - [1378]</Name><Routes>31:1</Routes><Sequence>0</Sequence><StopId>1378</StopId><Type>bus</Type><Virtual>true</Virtual></Stops><Stops><Forward>false</Forward><HasBoard>true</HasBoard><Lat>41.70934900000301</Lat><Lon>44.74114700000078</Lon><Name>ვაკის სასაფლაო - [1397]</Name><Routes>9:0</Routes><Routes>34:0</Routes><Routes>61:0</Routes><Routes>82:1</Routes><Sequence>0</Sequence><StopId>1397</StopId><Type>bus</Type><Virtual>false</Virtual></Stops><Stops><Forward>false</Forward><HasBoard>true</HasBoard><Lat>41.708241000003135</Lat><Lon>44.73402900000081</Lon><Name>წყნეთის გზატკეცილი #9 - [1398]</Name><Routes>9:1</Routes><Routes>34:1</Routes><Routes>61:1</Routes><Routes>82:0</Routes><Sequence>0</Sequence><StopId>1398</StopId><Type>bus</Type><Virtual>true</Virtual></Stops><Stops><Forward>false</Forward><HasBoard>true</HasBoard><Lat>41.7100480000029</Lat><Lon>44.73255300000081</Lon><Name>წყნეთის გზატკეცილი #25 - [1399]</Name><Routes>9:1</Routes><Routes>34:1</Routes><Routes>61:1</Routes><Routes>82:0</Routes><Sequence>0</Sequence><StopId>1399</StopId><Type>bus</Type><Virtual>true</Virtual></Stops><Stops><Forward>false</Forward><HasBoard>true</HasBoard><Lat>41.722154000001275</Lat><Lon>44.79675000000062</Lon><Name>სადგურის მოედანი - [1352]</Name><Routes>29:1</Routes><Routes>47:0</Routes><Routes>62:0</Routes><Sequence>0</Sequence><StopId>1352</StopId><Type>bus</Type><Virtual>false</Virtual></Stops><Stops><Forward>false</Forward><HasBoard>true</HasBoard><Lat>41.71673200000201</Lat><Lon>44.77499100000069</Lon><Name>ჩაილურის ქუჩა  - [1350]</Name><Routes>65:1</Routes><Sequence>0</Sequence><StopId>1350</StopId><Type>bus</Type><Virtual>true</Virtual></Stops><Stops><Forward>false</Forward><HasBoard>true</HasBoard><Lat>41.71640600000205</Lat><Lon>44.77175600000071</Lon><Name>ტეხურას ქუჩა - [1349]</Name><Routes>65:1</Routes><Sequence>0</Sequence><StopId>1349</StopId><Type>bus</Type><Virtual>false</Virtual></Stops><Stops><Forward>false</Forward><HasBoard>true</HasBoard><Lat>41.71590746139497</Lat><Lon>44.7695508854147</Lon><Name>ბაკურიანის ქუჩა - [1348]</Name><Routes>65:1</Routes><Sequence>0</Sequence><StopId>1348</StopId><Type>bus</Type><Virtual>false</Virtual></Stops><Stops><Forward>false</Forward><HasBoard>true</HasBoard><Lat>41.71628700000209</Lat><Lon>44.76793500000072</Lon><Name>ლიხაურის ქუჩა - [1347]</Name><Routes>65:1</Routes><Sequence>0</Sequence><StopId>1347</StopId><Type>bus</Type><Virtual>false</Virtual></Stops><Stops><Forward>false</Forward><HasBoard>true</HasBoard><Lat>41.71658554739566</Lat><Lon>44.765335760397896</Lon><Name>დოლიძის ქუჩა #89 - [1345]</Name><Routes>65:1</Routes><Sequence>0</Sequence><StopId>1345</StopId><Type>bus</Type><Virtual>false</Virtual></Stops><Stops><Forward>false</Forward><HasBoard>true</HasBoard><Lat>41.71639600000204</Lat><Lon>44.767619000000714</Lon><Name>ლიხაურის ქუჩა - [1344]</Name><Routes>65:0</Routes><Sequence>0</Sequence><StopId>1344</StopId><Type>bus</Type><Virtual>true</Virtual></Stops><Stops><Forward>false</Forward><HasBoard>true</HasBoard><Lat>41.71601107284926</Lat><Lon>44.76985997271192</Lon><Name>ბაკურიანის ქუჩა - [1343]</Name><Routes>65:0</Routes><Sequence>0</Sequence><StopId>1343</StopId><Type>bus</Type><Virtual>true</Virtual></Stops><Stops><Forward>false</Forward><HasBoard>true</HasBoard><Lat>41.71645300000199</Lat><Lon>44.77169600000069</Lon><Name>ტეხურას ქუჩა - [1342]</Name><Routes>65:0</Routes><Sequence>0</Sequence><StopId>1342</StopId><Type>bus</Type><Virtual>true</Virtual></Stops><Stops><Forward>false</Forward><HasBoard>true</HasBoard><Lat>41.71784800000184</Lat><Lon>44.77716400000068</Lon><Name>დოლიძის ქუჩა - [1340]</Name><Routes>65:0</Routes><Sequence>0</Sequence><StopId>1340</StopId><Type>bus</Type><Virtual>false</Virtual></Stops><Stops><Forward>false</Forward><HasBoard>true</HasBoard><Lat>41.717240000001915</Lat><Lon>44.77478800000069</Lon><Name>პანკისის ქუჩა - [1341]</Name><Routes>65:0</Routes><Sequence>0</Sequence><StopId>1341</StopId><Type>bus</Type><Virtual>true</Virtual></Stops><Stops><Forward>false</Forward><HasBoard>true</HasBoard><Lat>41.70903600000303</Lat><Lon>44.87195500000038</Lon><Name>ვარკეთილის IIIა მ/რ #338 მოპირდაპირედ - [1339]</Name><Routes>39:1</Routes><Sequence>0</Sequence><StopId>1339</StopId><Type>bus</Type><Virtual>true</Virtual></Stops><Stops><Forward>false</Forward><HasBoard>true</HasBoard><Lat>41.70788746632118</Lat><Lon>44.8821631602771</Lon><Name>ვარკეთილი 3-ის IV მ/რ, #421 მოპირდაპირედ - [1336]</Name><Routes>39:0</Routes><Routes>71:0</Routes><Routes>101:1</Routes><Sequence>0</Sequence><StopId>1336</StopId><Type>bus</Type><Virtual>false</Virtual></Stops><Stops><Forward>false</Forward><HasBoard>true</HasBoard><Lat>41.70415900000371</Lat><Lon>44.882405000000354</Lon><Name>ვარკეთილის 3-ის II მ/რ #18 - [1335]</Name><Routes>39:0</Routes><Routes>71:0</Routes><Routes>101:1</Routes><Sequence>0</Sequence><StopId>1335</StopId><Type>bus</Type><Virtual>true</Virtual></Stops><Stops><Forward>false</Forward><HasBoard>true</HasBoard><Lat>41.70965700000295</Lat><Lon>44.874135000000386</Lon><Name>ვარკეთილი 3-ის IV მ/რ, #403 - [1338]</Name><Routes>39:1</Routes><Routes>71:1</Routes><Sequence>0</Sequence><StopId>1338</StopId><Type>bus</Type><Virtual>false</Virtual></Stops><Stops><Forward>false</Forward><HasBoard>true</HasBoard><Lat>41.70824000000322</Lat><Lon>44.87738600000037</Lon><Name>ვარკეთილი 3-ის IV მ/რ, #410 - [1337]</Name><Routes>39:1</Routes><Routes>71:0</Routes><Routes>101:1</Routes><Sequence>0</Sequence><StopId>1337</StopId><Type>bus</Type><Virtual>false</Virtual></Stops><Stops><Forward>false</Forward><HasBoard>true</HasBoard><Lat>41.70179540424054</Lat><Lon>44.87468686276227</Lon><Name>ვარკეთილის III მ/რ-ის #304 მოპირდაპირედ - [1332]</Name><Routes>39:0</Routes><Routes>101:1</Routes><Sequence>0</Sequence><StopId>1332</StopId><Type>bus</Type><Virtual>true</Virtual></Stops><Stops><Forward>false</Forward><HasBoard>true</HasBoard><Lat>41.70190698356187</Lat><Lon>44.87170404402909</Lon><Name>სუხიშვილის ქუჩა - [1331]</Name><Routes>39:1</Routes><Routes>101:0</Routes><Sequence>0</Sequence><StopId>1331</StopId><Type>bus</Type><Virtual>false</Virtual></Stops><Stops><Forward>false</Forward><HasBoard>true</HasBoard><Lat>41.70245000000398</Lat><Lon>44.88124500000035</Lon><Name>სუხიშვილის მოედანი - [1334]</Name><Routes>39:0</Routes><Routes>71:0</Routes><Routes>101:1</Routes><Sequence>0</Sequence><StopId>1334</StopId><Type>bus</Type><Virtual>true</Virtual></Stops><Stops><Forward>false</Forward><HasBoard>true</HasBoard><Lat>41.701875377261196</Lat><Lon>44.87752580387233</Lon><Name>ვარკეთილის III მ/რ-ის #310 მოპირდაპირედ - [1333]</Name><Routes>39:0</Routes><Routes>101:1</Routes><Sequence>0</Sequence><StopId>1333</StopId><Type>bus</Type><Virtual>true</Virtual></Stops><Stops><Forward>false</Forward><HasBoard>true</HasBoard><Lat>41.67533460141545</Lat><Lon>44.822082882224585</Lon><Name>კრწანისის ქუჩა #7ა  - [1370]</Name><Routes>31:0</Routes><Sequence>0</Sequence><StopId>1370</StopId><Type>bus</Type><Virtual>true</Virtual></Stops><Stops><Forward>false</Forward><HasBoard>true</HasBoard><Lat>41.674452111635496</Lat><Lon>44.81555352955195</Lon><Name>კრწანისის ქუჩა #47 - [1373]</Name><Routes>31:0</Routes><Sequence>0</Sequence><StopId>1373</StopId><Type>bus</Type><Virtual>true</Virtual></Stops><Stops><Forward>false</Forward><HasBoard>true</HasBoard><Lat>41.67091800000826</Lat><Lon>44.81530300000055</Lon><Name>კრწანისის ქუჩა #53 - [1374]</Name><Routes>31:0</Routes><Sequence>0</Sequence><StopId>1374</StopId><Type>bus</Type><Virtual>true</Virtual></Stops><Stops><Forward>false</Forward><HasBoard>true</HasBoard><Lat>41.67505400000774</Lat><Lon>44.81993900000053</Lon><Name>კრწანისის ქუჩა #17ა - [1371]</Name><Routes>31:0</Routes><Sequence>0</Sequence><StopId>1371</StopId><Type>bus</Type><Virtual>true</Virtual></Stops><Stops><Forward>false</Forward><HasBoard>true</HasBoard><Lat>41.68255213658162</Lat><Lon>44.82350103243819</Lon><Name>გორგასლის მოედანი - [1367]</Name><Routes>31:0</Routes><Routes>44:0</Routes><Routes>50:0</Routes><Routes>55:0</Routes><Routes>71:0</Routes><Routes>80:0</Routes><Routes>102:0</Routes><Sequence>0</Sequence><StopId>1367</StopId><Type>bus</Type><Virtual>false</Virtual></Stops><Stops><Forward>false</Forward><HasBoard>true</HasBoard><Lat>41.686263000006186</Lat><Lon>44.82012100000053</Lon><Name>300 არაგველის მემორიალი - [1366]</Name><Routes>31:0</Routes><Routes>44:0</Routes><Routes>50:0</Routes><Routes>55:0</Routes><Routes>71:0</Routes><Routes>80:0</Routes><Routes>102:0</Routes><Sequence>0</Sequence><StopId>1366</StopId><Type>bus</Type><Virtual>false</Virtual></Stops><Stops><Forward>false</Forward><HasBoard>true</HasBoard><Lat>41.6878471783283</Lat><Lon>44.818141984324434</Lon><Name>ორთაჭალა - [1365]</Name><Routes>31:0</Routes><Routes>44:0</Routes><Routes>50:0</Routes><Routes>55:0</Routes><Routes>71:0</Routes><Routes>80:0</Routes><Routes>102:0</Routes><Sequence>0</Sequence><StopId>1365</StopId><Type>bus</Type><Virtual>false</Virtual></Stops><Stops><Forward>false</Forward><HasBoard>true</HasBoard><Lat>41.67691899605316</Lat><Lon>44.82397166347475</Lon><Name>კრწანისის ქუჩა #3 - [1369]</Name><Routes>31:0</Routes><Sequence>0</Sequence><StopId>1369</StopId><Type>bus</Type><Virtual>true</Virtual></Stops><Stops><Forward>false</Forward><HasBoard>true</HasBoard><Lat>41.69159283603604</Lat><Lon>44.80812801539022</Lon><Name>სიონის ეკლესია - [1362]</Name><Routes>31:0</Routes><Routes>44:0</Routes><Routes>50:0</Routes><Routes>55:0</Routes><Routes>71:0</Routes><Routes>80:0</Routes><Routes>102:0</Routes><Sequence>0</Sequence><StopId>1362</StopId><Type>bus</Type><Virtual>false</Virtual></Stops><Stops><Forward>false</Forward><HasBoard>true</HasBoard><Lat>41.73719668331453</Lat><Lon>44.73914377098838</Lon><Name>ონკოლოგიური კვლევითი ცენტრი - [1354]</Name><Routes>29:1</Routes><Routes>29:0</Routes><Sequence>0</Sequence><StopId>1354</StopId><Type>bus</Type><Virtual>false</Virtual></Stops><Stops><Forward>false</Forward><HasBoard>true</HasBoard><Lat>41.736196999999265</Lat><Lon>44.746973000000786</Lon><Name>ლისის ტბის დასახლება II - [1353]</Name><Routes>29:1</Routes><Sequence>0</Sequence><StopId>1353</StopId><Type>bus</Type><Virtual>true</Virtual></Stops><Stops><Forward>false</Forward><HasBoard>true</HasBoard><Lat>41.731792332872736</Lat><Lon>44.754701410147625</Lon><Name>ბერიტაშვილის #1-ის პირდაპირ - [1356]</Name><Routes>29:1</Routes><Sequence>0</Sequence><StopId>1356</StopId><Type>bus</Type><Virtual>true</Virtual></Stops><Stops><Forward>false</Forward><HasBoard>true</HasBoard><Lat>41.73048700000005</Lat><Lon>44.75808800000074</Lon><Name>ბუდაპეშტის ქუჩა #13ა  - [1355]</Name><Routes>29:1</Routes><Sequence>0</Sequence><StopId>1355</StopId><Type>bus</Type><Virtual>true</Virtual></Stops><Stops><Forward>false</Forward><HasBoard>true</HasBoard><Lat>41.7304541681468</Lat><Lon>44.75777490490863</Lon><Name>ბუდაპეშტის ქუჩა #13ა-ს მოპირდაპირედ - [1358]</Name><Routes>29:0</Routes><Sequence>0</Sequence><StopId>1358</StopId><Type>bus</Type><Virtual>false</Virtual></Stops><Stops><Forward>false</Forward><HasBoard>true</HasBoard><Lat>41.731398000000006</Lat><Lon>44.75420800000075</Lon><Name>ბუდაპეშტის ქუჩა #44 - [1357]</Name><Routes>29:0</Routes><Sequence>0</Sequence><StopId>1357</StopId><Type>bus</Type><Virtual>false</Virtual></Stops><Stops><Forward>false</Forward><HasBoard>true</HasBoard><Lat>41.72758116838905</Lat><Lon>44.740347292351814</Lon><Name>ნუცუბიძის ქუჩა #62ა - [2435]</Name><Routes>6:0</Routes><Routes>47:1</Routes><Routes>49:1</Routes><Routes>99:1</Routes><Routes>107:1</Routes><Sequence>0</Sequence><StopId>2435</StopId><Type>bus</Type><Virtual>false</Virtual></Stops><Stops><Forward>false</Forward><HasBoard>true</HasBoard><Lat>41.72710700000053</Lat><Lon>44.73533000000081</Lon><Name>ნუცუბიძის ქუჩა #70 - [2434]</Name><Routes>6:0</Routes><Routes>47:1</Routes><Routes>49:1</Routes><Routes>99:1</Routes><Routes>107:1</Routes><Sequence>0</Sequence><StopId>2434</StopId><Type>bus</Type><Virtual>false</Virtual></Stops><Stops><Forward>false</Forward><HasBoard>true</HasBoard><Lat>41.73244923264963</Lat><Lon>44.722292417372564</Lon><Name>ნუცუბიძის II მ/რ, კვ-3, #9 კ. - [2432]</Name><Routes>99:1</Routes><Sequence>0</Sequence><StopId>2432</StopId><Type>bus</Type><Virtual>false</Virtual></Stops><Stops><Forward>false</Forward><HasBoard>true</HasBoard><Lat>41.728906000000265</Lat><Lon>44.724773000000845</Lon><Name>#130 საბავშვო ბაღი - [2425]</Name><Routes>88:0</Routes><Routes>99:0</Routes><Routes>107:0</Routes><Sequence>0</Sequence><StopId>2425</StopId><Type>bus</Type><Virtual>true</Virtual></Stops><Stops><Forward>false</Forward><HasBoard>true</HasBoard><Lat>41.73253899999976</Lat><Lon>44.72222000000086</Lon><Name>ნუცუბიძის II მ/რ, კვ-3, #9-ის მოპირდაპირედ - [2426]</Name><Routes>99:0</Routes><Sequence>0</Sequence><StopId>2426</StopId><Type>bus</Type><Virtual>true</Virtual></Stops><Stops><Forward>false</Forward><HasBoard>true</HasBoard><Lat>41.734968771420256</Lat><Lon>44.72059497789188</Lon><Name>ნუცუბიძის IV მ/რ #19ბ  - [2479]</Name><Routes>99:1</Routes><Routes>107:0</Routes><Sequence>0</Sequence><StopId>2479</StopId><Type>bus</Type><Virtual>false</Virtual></Stops><Stops><Forward>false</Forward><HasBoard>true</HasBoard><Lat>41.73273099999981</Lat><Lon>44.72285100000086</Lon><Name>ნუცუბიძის IV-V მ/რ - [2478]</Name><Routes>99:1</Routes><Routes>107:0</Routes><Sequence>0</Sequence><StopId>2478</StopId><Type>bus</Type><Virtual>true</Virtual></Stops><Stops><Forward>false</Forward><HasBoard>false</HasBoard><Lat>41.646980999202704</Lat><Lon>44.64577699900448</Lon><Name>კიკეთი - [2475]</Name><Routes>5:0</Routes><Routes>106:0</Routes><Sequence>0</Sequence><StopId>2475</StopId><Type>bus</Type><Virtual>false</Virtual></Stops><Stops><Forward>false</Forward><HasBoard>true</HasBoard><Lat>41.73470911182089</Lat><Lon>44.72054298703467</Lon><Name>ნუცუბიძის IV მ/რ #19ბ-ის მოპირდაპირედ - [2484]</Name><Routes>88:1</Routes><Routes>99:0</Routes><Routes>107:1</Routes><Sequence>0</Sequence><StopId>2484</StopId><Type>bus</Type><Virtual>false</Virtual></Stops><Stops><Forward>false</Forward><HasBoard>false</HasBoard><Lat>41.73635970542806</Lat><Lon>44.71859266864019</Lon><Name>ნუცუბიძის II მ/რ #32 - [2483]</Name><Routes>107:1</Routes><Sequence>0</Sequence><StopId>2483</StopId><Type>bus</Type><Virtual>false</Virtual></Stops><Stops><Forward>false</Forward><HasBoard>true</HasBoard><Lat>41.75557124944768</Lat><Lon>44.67735002965047</Lon><Name>სოფელი ლისის დასაწყისი - [2482]</Name><Routes>107:1</Routes><Sequence>0</Sequence><StopId>2482</StopId><Type>bus</Type><Virtual>true</Virtual></Stops><Stops><Forward>false</Forward><HasBoard>true</HasBoard><Lat>41.73658549895835</Lat><Lon>44.7186008616372</Lon><Name>ნუცუბიძის IV მ/რ #32-ის მოპირდაპირედ - [2480]</Name><Routes>107:0</Routes><Sequence>0</Sequence><StopId>2480</StopId><Type>bus</Type><Virtual>true</Virtual></Stops><Stops><Forward>false</Forward><HasBoard>true</HasBoard><Lat>41.68562256366781</Lat><Lon>44.870173059603275</Lon><Name>ჯავახეთის ქუჩა #2 - [2499]</Name><Routes>18:1</Routes><Routes>19:0</Routes><Routes>25:1</Routes><Routes>39:1</Routes><Routes>40:1</Routes><Routes>50:1</Routes><Routes>56:1</Routes><Routes>71:1</Routes><Routes>101:0</Routes><Sequence>0</Sequence><StopId>2499</StopId><Type>bus</Type><Virtual>true</Virtual></Stops><Stops><Forward>false</Forward><HasBoard>true</HasBoard><Lat>41.79213034515867</Lat><Lon>44.76452480548464</Lon><Name>ფარნავაზ მეფის ქუჩა - [2497]</Name><Routes>14:1</Routes><Routes>15:1</Routes><Routes>21:0</Routes><Routes>26:0</Routes><Routes>84:1</Routes><Sequence>0</Sequence><StopId>2497</StopId><Type>bus</Type><Virtual>true</Virtual></Stops><Stops><Forward>false</Forward><HasBoard>true</HasBoard><Lat>41.823059999987315</Lat><Lon>44.768861000000754</Lon><Name>ზაჰესის გადასახვევი - [2489]</Name><Routes>121:1</Routes><Sequence>0</Sequence><StopId>2489</StopId><Type>bus</Type><Virtual>true</Virtual></Stops><Stops><Forward>false</Forward><HasBoard>true</HasBoard><Lat>41.73273599999979</Lat><Lon>44.751782000000766</Lon><Name>ბერიტაშვილის ქუჩა #82 - [2145]</Name><Routes>29:0</Routes><Sequence>0</Sequence><StopId>2145</StopId><Type>bus</Type><Virtual>false</Virtual></Stops><Stops><Forward>false</Forward><HasBoard>true</HasBoard><Lat>41.7327789999998</Lat><Lon>44.75190200000077</Lon><Name>ბერიტაშვილის ქუჩა #82-ის მოპირდაპირედ - [2146]</Name><Routes>29:1</Routes><Sequence>0</Sequence><StopId>2146</StopId><Type>bus</Type><Virtual>true</Virtual></Stops><Stops><Forward>false</Forward><HasBoard>true</HasBoard><Lat>41.65109300001093</Lat><Lon>44.758289000000694</Lon><Name>სოფელი ტაბახმელა - [2147]</Name><Routes>103:1</Routes><Sequence>0</Sequence><StopId>2147</StopId><Type>bus</Type><Virtual>true</Virtual></Stops><Stops><Forward>false</Forward><HasBoard>true</HasBoard><Lat>41.684523058844505</Lat><Lon>44.857892168540204</Lon><Name>ს/ს ქაშანაური - [2149]</Name><Routes>1:1</Routes><Routes>2:1</Routes><Routes>8:1</Routes><Routes>12:1</Routes><Routes>18:1</Routes><Routes>19:0</Routes><Routes>22:1</Routes><Routes>25:1</Routes><Routes>39:1</Routes><Routes>40:1</Routes><Routes>41:1</Routes><Routes>50:1</Routes><Routes>56:1</Routes><Routes>72:1</Routes><Routes>101:0</Routes><Sequence>0</Sequence><StopId>2149</StopId><Type>bus</Type><Virtual>true</Virtual></Stops><Stops><Forward>false</Forward><HasBoard>true</HasBoard><Lat>41.653712531200426</Lat><Lon>44.65826506532289</Lon><Name>დიდება - [3681]</Name><Routes>5:1</Routes><Routes>5:0</Routes><Sequence>0</Sequence><StopId>3681</StopId><Type>bus</Type><Virtual>true</Virtual></Stops><Stops><Forward>false</Forward><HasBoard>true</HasBoard><Lat>41.71922272679222</Lat><Lon>44.79321308333558</Lon><Name>წინამძღვრიშვილის ქუჩა - [2153]</Name><Routes>9:1</Routes><Routes>21:0</Routes><Routes>29:1</Routes><Routes>31:0</Routes><Routes>34:1</Routes><Routes>37:0</Routes><Routes>47:0</Routes><Routes>49:0</Routes><Routes>53:0</Routes><Routes>65:0</Routes><Routes>66:0</Routes><Routes>78:0</Routes><Routes>92:1</Routes><Sequence>0</Sequence><StopId>2153</StopId><Type>bus</Type><Virtual>false</Virtual></Stops><Stops><Forward>false</Forward><HasBoard>true</HasBoard><Lat>41.70642400000346</Lat><Lon>44.84204300000047</Lon><Name>ვაზისუბნის II მ/რ #11 - [3200]</Name><Routes>19:0</Routes><Routes>25:1</Routes><Sequence>0</Sequence><StopId>3200</StopId><Type>bus</Type><Virtual>false</Virtual></Stops><Stops><Forward>false</Forward><HasBoard>true</HasBoard><Lat>41.68436200000647</Lat><Lon>44.85758200000042</Lon><Name>მეველეს ქუჩა - [2155]</Name><Routes>1:0</Routes><Routes>2:0</Routes><Routes>8:0</Routes><Routes>12:0</Routes><Routes>18:0</Routes><Routes>19:1</Routes><Routes>22:0</Routes><Routes>25:0</Routes><Routes>39:0</Routes><Routes>40:0</Routes><Routes>41:0</Routes><Routes>50:0</Routes><Routes>56:0</Routes><Routes>72:0</Routes><Routes>101:1</Routes><Sequence>0</Sequence><StopId>2155</StopId><Type>bus</Type><Virtual>true</Virtual></Stops><Stops><Forward>false</Forward><HasBoard>true</HasBoard><Lat>41.70576400000345</Lat><Lon>44.84314600000047</Lon><Name>კვაჭანტირაძის ქუჩა - [3202]</Name><Routes>19:1</Routes><Routes>25:0</Routes><Sequence>0</Sequence><StopId>3202</StopId><Type>bus</Type><Virtual>true</Virtual></Stops><Stops><Forward>false</Forward><HasBoard>true</HasBoard><Lat>41.76101999999588</Lat><Lon>44.7803880000007</Lon><Name>ძიუდოს ეროვნული ფედერაცია - [1894]</Name><Routes>46:0</Routes><Routes>121:0</Routes><Sequence>0</Sequence><StopId>1894</StopId><Type>bus</Type><Virtual>true</Virtual></Stops><Stops><Forward>false</Forward><HasBoard>true</HasBoard><Lat>41.69308700000529</Lat><Lon>44.854728000000435</Lon><Name>ჩოჩუას ქუჩა - [3201]</Name><Routes>19:0</Routes><Sequence>0</Sequence><StopId>3201</StopId><Type>bus</Type><Virtual>false</Virtual></Stops><Stops><Forward>false</Forward><HasBoard>true</HasBoard><Lat>41.75706999999645</Lat><Lon>44.7797180000007</Lon><Name>#39 საბავშვო სახლი - [1893]</Name><Routes>46:0</Routes><Routes>121:0</Routes><Sequence>0</Sequence><StopId>1893</StopId><Type>bus</Type><Virtual>true</Virtual></Stops><Stops><Forward>false</Forward><HasBoard>true</HasBoard><Lat>41.700184000004285</Lat><Lon>44.84975300000045</Lon><Name>ვაზისუბნის I მ/რ #7 მოპირდაპირედ - [3204]</Name><Routes>19:1</Routes><Sequence>0</Sequence><StopId>3204</StopId><Type>bus</Type><Virtual>true</Virtual></Stops><Stops><Forward>false</Forward><HasBoard>true</HasBoard><Lat>41.75493599999671</Lat><Lon>44.777611000000704</Lon><Name>დიდუბე-ჩუღურეთის რაიონის გამგეობა - [1892]</Name><Routes>46:0</Routes><Routes>121:0</Routes><Sequence>0</Sequence><StopId>1892</StopId><Type>bus</Type><Virtual>true</Virtual></Stops><Stops><Forward>false</Forward><HasBoard>true</HasBoard><Lat>41.70097200000418</Lat><Lon>44.84896100000045</Lon><Name>ვაზისუბნის I მ/რ #3 - [3203]</Name><Routes>19:1</Routes><Sequence>0</Sequence><StopId>3203</StopId><Type>bus</Type><Virtual>true</Virtual></Stops><Stops><Forward>false</Forward><HasBoard>true</HasBoard><Lat>41.69133700000551</Lat><Lon>44.952228000000126</Lon><Name>შავი ზღვის უნივერსიტეტი - [3206]</Name><Routes>8:1</Routes><Routes>37:0</Routes><Sequence>0</Sequence><StopId>3206</StopId><Type>bus</Type><Virtual>true</Virtual></Stops><Stops><Forward>false</Forward><HasBoard>true</HasBoard><Lat>41.75714699999645</Lat><Lon>44.77946400000069</Lon><Name>#39 საბავშვო სახლი - [1898]</Name><Routes>46:1</Routes><Routes>121:1</Routes><Sequence>0</Sequence><StopId>1898</StopId><Type>bus</Type><Virtual>false</Virtual></Stops><Stops><Forward>false</Forward><HasBoard>true</HasBoard><Lat>41.6931850000052</Lat><Lon>44.85478400000043</Lon><Name>ჩოჩუას ქუჩა - [3205]</Name><Routes>19:1</Routes><Sequence>0</Sequence><StopId>3205</StopId><Type>bus</Type><Virtual>true</Virtual></Stops><Stops><Forward>false</Forward><HasBoard>true</HasBoard><Lat>41.76105399999591</Lat><Lon>44.78014200000068</Lon><Name>ძიუდოს ეროვნული ფედერაცია - [1897]</Name><Routes>46:1</Routes><Routes>121:1</Routes><Sequence>0</Sequence><StopId>1897</StopId><Type>bus</Type><Virtual>false</Virtual></Stops><Stops><Forward>false</Forward><HasBoard>true</HasBoard><Lat>41.666389000008955</Lat><Lon>44.919182000000234</Lon><Name>ჭიჭინაძის ქუჩა - [3208]</Name><Routes>2:0</Routes><Sequence>0</Sequence><StopId>3208</StopId><Type>bus</Type><Virtual>true</Virtual></Stops><Stops><Forward>false</Forward><HasBoard>true</HasBoard><Lat>41.67475700000779</Lat><Lon>44.96130800000011</Lon><Name>შინაგან საქმეთა სამინისტრო - [3207]</Name><Routes>37:0</Routes><Sequence>0</Sequence><StopId>3207</StopId><Type>bus</Type><Virtual>true</Virtual></Stops><Stops><Forward>false</Forward><HasBoard>true</HasBoard><Lat>41.66809000000871</Lat><Lon>44.91473900000024</Lon><Name>გუმათჰესის ქუჩა #10-ის მოპირდაპირედ - [3209]</Name><Routes>2:0</Routes><Sequence>0</Sequence><StopId>3209</StopId><Type>bus</Type><Virtual>true</Virtual></Stops><Stops><Forward>false</Forward><HasBoard>true</HasBoard><Lat>41.673960237844</Lat><Lon>44.80951156932093</Lon><Name>ორთაჭალის #106 - [3686]</Name><Routes>80:1</Routes><Sequence>0</Sequence><StopId>3686</StopId><Type>bus</Type><Virtual>true</Virtual></Stops><Stops><Forward>false</Forward><HasBoard>true</HasBoard><Lat>41.75521199999669</Lat><Lon>44.76891800000073</Lon><Name>ვაშლიჯვარი - [2166]</Name><Routes>14:1</Routes><Routes>24:1</Routes><Routes>27:0</Routes><Sequence>0</Sequence><StopId>2166</StopId><Type>bus</Type><Virtual>false</Virtual></Stops><Stops><Forward>false</Forward><HasBoard>true</HasBoard><Lat>41.703089000003864</Lat><Lon>44.80504500000059</Lon><Name>გოგიბერიძის ქუჩა #6 - [2165]</Name><Routes>91:1</Routes><Sequence>0</Sequence><StopId>2165</StopId><Type>bus</Type><Virtual>true</Virtual></Stops><Stops><Forward>false</Forward><HasBoard>true</HasBoard><Lat>41.669080000008535</Lat><Lon>44.913189000000244</Lon><Name>გუმათჰესის ქუჩა #13-ის მოპირდაპირედ - [3210]</Name><Routes>2:0</Routes><Sequence>0</Sequence><StopId>3210</StopId><Type>bus</Type><Virtual>true</Virtual></Stops><Stops><Forward>false</Forward><HasBoard>true</HasBoard><Lat>41.6817780000068</Lat><Lon>44.90070100000029</Lon><Name>ჟორესის ქუჩა - [3211]</Name><Routes>2:1</Routes><Sequence>0</Sequence><StopId>3211</StopId><Type>bus</Type><Virtual>false</Virtual></Stops><Stops><Forward>false</Forward><HasBoard>true</HasBoard><Lat>41.684321000006456</Lat><Lon>44.8980580000003</Lon><Name>ქიზიყის ქუჩა #11  - [3219]</Name><Routes>2:0</Routes><Sequence>0</Sequence><StopId>3219</StopId><Type>bus</Type><Virtual>true</Virtual></Stops><Stops><Forward>false</Forward><HasBoard>true</HasBoard><Lat>41.67047600000839</Lat><Lon>44.914129000000244</Lon><Name>ცისკარიშვილის ქუჩა - [3218]</Name><Routes>2:0</Routes><Sequence>0</Sequence><StopId>3218</StopId><Type>bus</Type><Virtual>true</Virtual></Stops><Stops><Forward>false</Forward><HasBoard>true</HasBoard><Lat>41.68023000000698</Lat><Lon>44.905210000000274</Lon><Name>ენუქიძის ქუჩა #8 - [3217]</Name><Routes>2:0</Routes><Sequence>0</Sequence><StopId>3217</StopId><Type>bus</Type><Virtual>true</Virtual></Stops><Stops><Forward>false</Forward><HasBoard>true</HasBoard><Lat>41.67916000000722</Lat><Lon>44.908003000000264</Lon><Name>ენუქიძის ქუჩა #12 - [3216]</Name><Routes>2:0</Routes><Sequence>0</Sequence><StopId>3216</StopId><Type>bus</Type><Virtual>true</Virtual></Stops><Stops><Forward>false</Forward><HasBoard>true</HasBoard><Lat>41.77459418885555</Lat><Lon>44.79527931992217</Lon><Name>მ/ს გურამიშვილი - [2167]</Name><Routes>62:1</Routes><Sequence>0</Sequence><StopId>2167</StopId><Type>bus</Type><Virtual>false</Virtual></Stops><Stops><Forward>false</Forward><HasBoard>true</HasBoard><Lat>41.67754000000741</Lat><Lon>44.91056500000026</Lon><Name>გუმათჰესის ქუჩა - [3215]</Name><Routes>2:0</Routes><Sequence>0</Sequence><StopId>3215</StopId><Type>bus</Type><Virtual>true</Virtual></Stops><Stops><Forward>false</Forward><HasBoard>true</HasBoard><Lat>41.774368999994046</Lat><Lon>44.79553100000065</Lon><Name>მ/ს გურამიშვილი - [2168]</Name><Routes>62:0</Routes><Sequence>0</Sequence><StopId>2168</StopId><Type>bus</Type><Virtual>false</Virtual></Stops><Stops><Forward>false</Forward><HasBoard>true</HasBoard><Lat>41.67721200000743</Lat><Lon>44.91075800000026</Lon><Name>გუმათჰესის ქუჩა - [3214]</Name><Routes>2:1</Routes><Sequence>0</Sequence><StopId>3214</StopId><Type>bus</Type><Virtual>false</Virtual></Stops><Stops><Forward>false</Forward><HasBoard>true</HasBoard><Lat>41.684607000006395</Lat><Lon>44.86669300000039</Lon><Name>ჯავახეთის ქუჩა - [2169]</Name><Routes>37:0</Routes><Routes>71:0</Routes><Sequence>0</Sequence><StopId>2169</StopId><Type>bus</Type><Virtual>true</Virtual></Stops><Stops><Forward>false</Forward><HasBoard>true</HasBoard><Lat>41.67912100000716</Lat><Lon>44.90779700000027</Lon><Name>ენუქიძის ქუჩა #12 - [3213]</Name><Routes>2:1</Routes><Sequence>0</Sequence><StopId>3213</StopId><Type>bus</Type><Virtual>false</Virtual></Stops><Stops><Forward>false</Forward><HasBoard>true</HasBoard><Lat>41.680107000007006</Lat><Lon>44.90522400000027</Lon><Name>ენუქიძის ქუჩა #8 - [3212]</Name><Routes>2:1</Routes><Sequence>0</Sequence><StopId>3212</StopId><Type>bus</Type><Virtual>false</Virtual></Stops><Stops><Forward>false</Forward><HasBoard>true</HasBoard><Lat>41.70205905291171</Lat><Lon>44.87770466346412</Lon><Name>ვარკეთილის III მ/რ #310 - [2175]</Name><Routes>101:0</Routes><Sequence>0</Sequence><StopId>2175</StopId><Type>bus</Type><Virtual>false</Virtual></Stops><Stops><Forward>false</Forward><HasBoard>true</HasBoard><Lat>41.6842270000065</Lat><Lon>44.895699000000306</Lon><Name>ქიზიყის ქუჩა #7  - [3221]</Name><Routes>2:0</Routes><Sequence>0</Sequence><StopId>3221</StopId><Type>bus</Type><Virtual>true</Virtual></Stops><Stops><Forward>false</Forward><HasBoard>true</HasBoard><Lat>41.68412400000648</Lat><Lon>44.8955420000003</Lon><Name>ქიზიყის ქუჩა #7  - [3222]</Name><Routes>2:1</Routes><Sequence>0</Sequence><StopId>3222</StopId><Type>bus</Type><Virtual>false</Virtual></Stops><Stops><Forward>false</Forward><HasBoard>true</HasBoard><Lat>41.71300216642919</Lat><Lon>44.8033528369291</Lon><Name>ჩიტაიას ქუჩა #13/2 - [2177]</Name><Routes>23:0</Routes><Routes>62:0</Routes><Routes>95:0</Routes><Routes>122:1</Routes><Sequence>0</Sequence><StopId>2177</StopId><Type>bus</Type><Virtual>true</Virtual></Stops><Stops><Forward>false</Forward><HasBoard>true</HasBoard><Lat>41.70183000000408</Lat><Lon>44.80743300000058</Lon><Name>ხეთაგუროვის ქუჩა #4  - [2176]</Name><Routes>122:1</Routes><Sequence>0</Sequence><StopId>2176</StopId><Type>bus</Type><Virtual>true</Virtual></Stops><Stops><Forward>false</Forward><HasBoard>true</HasBoard><Lat>41.68422700000649</Lat><Lon>44.897786000000295</Lon><Name>ქიზიყის ქუჩა #11  - [3220]</Name><Routes>2:1</Routes><Sequence>0</Sequence><StopId>3220</StopId><Type>bus</Type><Virtual>true</Virtual></Stops><Stops><Forward>false</Forward><HasBoard>true</HasBoard><Lat>41.78254699999295</Lat><Lon>44.798458000000636</Lon><Name>ანაპის 414 დივიზიის ქუჩა - [2171]</Name><Routes>11:0</Routes><Routes>23:0</Routes><Routes>33:0</Routes><Routes>86:0</Routes><Sequence>0</Sequence><StopId>2171</StopId><Type>bus</Type><Virtual>false</Virtual></Stops><Stops><Forward>false</Forward><HasBoard>true</HasBoard><Lat>41.651710000010915</Lat><Lon>44.906515000000255</Lon><Name>რუსთავის გზატკეცილი #235 - [3228]</Name><Routes>101:0</Routes><Routes>102:0</Routes><Sequence>0</Sequence><StopId>3228</StopId><Type>bus</Type><Virtual>true</Virtual></Stops><Stops><Forward>false</Forward><HasBoard>true</HasBoard><Lat>41.66858500000858</Lat><Lon>44.89039400000031</Lon><Name>მარელისის ქუჩა - [3227]</Name><Routes>72:1</Routes><Sequence>0</Sequence><StopId>3227</StopId><Type>bus</Type><Virtual>true</Virtual></Stops><Stops><Forward>false</Forward><HasBoard>true</HasBoard><Lat>41.65072000001109</Lat><Lon>44.90744900000026</Lon><Name>რუსთავის გზატკეცილი #245 - [3229]</Name><Routes>101:0</Routes><Routes>102:0</Routes><Sequence>0</Sequence><StopId>3229</StopId><Type>bus</Type><Virtual>true</Virtual></Stops><Stops><Forward>false</Forward><HasBoard>true</HasBoard><Lat>41.683216000006645</Lat><Lon>44.900097000000294</Lon><Name>ქიზიყის ქუჩა #13 - [3224]</Name><Routes>2:0</Routes><Sequence>0</Sequence><StopId>3224</StopId><Type>bus</Type><Virtual>true</Virtual></Stops><Stops><Forward>false</Forward><HasBoard>true</HasBoard><Lat>41.68333800000661</Lat><Lon>44.89993300000028</Lon><Name>ქიზიყის ქუჩა #13 - [3223]</Name><Routes>2:1</Routes><Sequence>0</Sequence><StopId>3223</StopId><Type>bus</Type><Virtual>false</Virtual></Stops><Stops><Forward>false</Forward><HasBoard>true</HasBoard><Lat>41.71982300000158</Lat><Lon>44.79571400000062</Lon><Name>თამარ მეფის გამზირი - [2178]</Name><Routes>62:0</Routes><Routes>68:0</Routes><Routes>77:0</Routes><Routes>122:0</Routes><Sequence>0</Sequence><StopId>2178</StopId><Type>bus</Type><Virtual>true</Virtual></Stops><Stops><Forward>false</Forward><HasBoard>true</HasBoard><Lat>41.66661800000887</Lat><Lon>44.89426100000031</Lon><Name>ოცხელების ქუჩა #26-ის მოპირდაპირედ - [3226]</Name><Routes>72:0</Routes><Sequence>0</Sequence><StopId>3226</StopId><Type>bus</Type><Virtual>true</Virtual></Stops><Stops><Forward>false</Forward><HasBoard>true</HasBoard><Lat>41.667772000008725</Lat><Lon>44.8912680000003</Lon><Name>ოცხელების ქუჩა #8-ის მოპირდაპირედ - [3225]</Name><Routes>72:0</Routes><Sequence>0</Sequence><StopId>3225</StopId><Type>bus</Type><Virtual>true</Virtual></Stops><Stops><Forward>false</Forward><HasBoard>true</HasBoard><Lat>41.72599892382523</Lat><Lon>44.74995069733639</Lon><Name>ასათიანის ქუჩა - [997]</Name><Routes>24:1</Routes><Routes>47:0</Routes><Routes>49:0</Routes><Routes>87:1</Routes><Routes>92:1</Routes><Routes>150:1</Routes><Sequence>0</Sequence><StopId>997</StopId><Type>bus</Type><Virtual>false</Virtual></Stops><Stops><Forward>false</Forward><HasBoard>true</HasBoard><Lat>41.711483000002744</Lat><Lon>44.800393000000604</Lon><Name>ჯავახიშვილის ქუჩა #69 - [2180]</Name><Routes>53:1</Routes><Sequence>0</Sequence><StopId>2180</StopId><Type>bus</Type><Virtual>true</Virtual></Stops><Stops><Forward>false</Forward><HasBoard>true</HasBoard><Lat>41.72424900000093</Lat><Lon>44.747611000000774</Lon><Name>ანტონოვის ქუჩა - [996]</Name><Routes>24:0</Routes><Routes>47:1</Routes><Routes>49:1</Routes><Routes>85:0</Routes><Routes>92:0</Routes><Routes>150:0</Routes><Sequence>0</Sequence><StopId>996</StopId><Type>bus</Type><Virtual>false</Virtual></Stops><Stops><Forward>false</Forward><HasBoard>true</HasBoard><Lat>41.72396583233245</Lat><Lon>44.74432197802169</Lon><Name>თამარაშვილის ქუჩა - [994]</Name><Routes>21:1</Routes><Routes>24:0</Routes><Routes>47:1</Routes><Routes>49:1</Routes><Routes>82:0</Routes><Routes>88:1</Routes><Routes>92:0</Routes><Routes>140:0</Routes><Routes>150:0</Routes><Sequence>0</Sequence><StopId>994</StopId><Type>bus</Type><Virtual>false</Virtual></Stops><Stops><Forward>false</Forward><HasBoard>true</HasBoard><Lat>41.723815977791986</Lat><Lon>44.73906449141768</Lon><Name>ქავთარაძის ქუჩა #1 - [993]</Name><Routes>21:1</Routes><Routes>24:1</Routes><Routes>47:1</Routes><Routes>49:1</Routes><Routes>82:0</Routes><Routes>92:0</Routes><Routes>140:1</Routes><Sequence>0</Sequence><StopId>993</StopId><Type>bus</Type><Virtual>true</Virtual></Stops><Stops><Forward>false</Forward><HasBoard>true</HasBoard><Lat>41.72095200000138</Lat><Lon>44.727034000000835</Lon><Name>ქავთარაძის ქუჩა #22 - [992]</Name><Routes>24:1</Routes><Routes>140:1</Routes><Sequence>0</Sequence><StopId>992</StopId><Type>bus</Type><Virtual>true</Virtual></Stops><Stops><Forward>false</Forward><HasBoard>true</HasBoard><Lat>41.721706517287274</Lat><Lon>44.73339339332358</Lon><Name>მიქელაძის ქუჩა - [990]</Name><Routes>24:1</Routes><Routes>140:1</Routes><Sequence>0</Sequence><StopId>990</StopId><Type>bus</Type><Virtual>false</Virtual></Stops><Stops><Forward>false</Forward><HasBoard>true</HasBoard><Lat>41.739524999998906</Lat><Lon>44.9635730000001</Lon><Name>დიდი ლილო - [2188]</Name><Routes>12:1</Routes><Sequence>0</Sequence><StopId>2188</StopId><Type>bus</Type><Virtual>true</Virtual></Stops><Stops><Forward>false</Forward><HasBoard>true</HasBoard><Lat>41.63979900001258</Lat><Lon>44.91486300000023</Lon><Name>№ 218 საჯარო სკოლის მოპირდაპირედ - [3230]</Name><Routes>101:0</Routes><Routes>102:0</Routes><Sequence>0</Sequence><StopId>3230</StopId><Type>bus</Type><Virtual>true</Virtual></Stops><Stops><Forward>false</Forward><HasBoard>true</HasBoard><Lat>41.636373000016036</Lat><Lon>44.91709999999879</Lon><Name>გულბანის ქუჩა (ჩრდილოეთით) - [3231]</Name><Routes>101:0</Routes><Routes>102:0</Routes><Sequence>0</Sequence><StopId>3231</StopId><Type>bus</Type><Virtual>true</Virtual></Stops><Stops><Forward>false</Forward><HasBoard>true</HasBoard><Lat>41.63983000001251</Lat><Lon>44.91497400000024</Lon><Name>№ 218 საჯარო სკოლა - [3232]</Name><Routes>101:1</Routes><Routes>102:1</Routes><Sequence>0</Sequence><StopId>3232</StopId><Type>bus</Type><Virtual>false</Virtual></Stops><Stops><Forward>false</Forward><HasBoard>true</HasBoard><Lat>41.64356100001204</Lat><Lon>44.89372000000031</Lon><Name>ზემო ფონიჭალა #20 - [3233]</Name><Routes>19:0</Routes><Routes>44:0</Routes><Sequence>0</Sequence><StopId>3233</StopId><Type>bus</Type><Virtual>true</Virtual></Stops><Stops><Forward>false</Forward><HasBoard>true</HasBoard><Lat>41.70179584484006</Lat><Lon>44.807232182774605</Lon><Name>წმინდა ნიკოლოზის ქუჩა #1 - [2184]</Name><Routes>122:0</Routes><Sequence>0</Sequence><StopId>2184</StopId><Type>bus</Type><Virtual>true</Virtual></Stops><Stops><Forward>false</Forward><HasBoard>true</HasBoard><Lat>41.724566000000905</Lat><Lon>44.751295000000766</Lon><Name>კარტოზიას ქუჩა - [999]</Name><Routes>24:0</Routes><Routes>47:1</Routes><Routes>49:1</Routes><Routes>85:0</Routes><Routes>150:0</Routes><Sequence>0</Sequence><StopId>999</StopId><Type>bus</Type><Virtual>false</Virtual></Stops><Stops><Forward>false</Forward><HasBoard>true</HasBoard><Lat>41.68838400000591</Lat><Lon>44.81657600000054</Lon><Name>გორგასლის ქუჩა #19 - [2914]</Name><Routes>31:0</Routes><Routes>44:0</Routes><Routes>50:0</Routes><Routes>55:0</Routes><Routes>71:0</Routes><Routes>80:0</Routes><Routes>102:0</Routes><Sequence>0</Sequence><StopId>2914</StopId><Type>bus</Type><Virtual>true</Virtual></Stops><Stops><Forward>false</Forward><HasBoard>true</HasBoard><Lat>41.657732141210786</Lat><Lon>44.91051737513245</Lon><Name>ქვედა მელითონეთა დასახლება - [2919]</Name><Routes>55:1</Routes><Routes>72:0</Routes><Sequence>0</Sequence><StopId>2919</StopId><Type>bus</Type><Virtual>true</Virtual></Stops><Stops><Forward>false</Forward><HasBoard>true</HasBoard><Lat>41.71880600000172</Lat><Lon>44.76171400000072</Lon><Name>ფანასკერტელ-ციციშვილის ქუჩა - [1860]</Name><Routes>42:1</Routes><Sequence>0</Sequence><StopId>1860</StopId><Type>bus</Type><Virtual>false</Virtual></Stops><Stops><Forward>false</Forward><HasBoard>true</HasBoard><Lat>41.71873300000169</Lat><Lon>44.759503000000734</Lon><Name>ქვემო ფანასკერტელი - [1861]</Name><Routes>42:1</Routes><Sequence>0</Sequence><StopId>1861</StopId><Type>bus</Type><Virtual>true</Virtual></Stops><Stops><Forward>false</Forward><HasBoard>true</HasBoard><Lat>41.65905854882402</Lat><Lon>44.903661574867115</Lon><Name>ინდივიდუალური დასახლება #18 გარდაბნის გზატკეცილზე - [2910]</Name><Routes>55:0</Routes><Routes>72:1</Routes><Sequence>0</Sequence><StopId>2910</StopId><Type>bus</Type><Virtual>true</Virtual></Stops><Stops><Forward>false</Forward><HasBoard>true</HasBoard><Lat>41.71790738826679</Lat><Lon>44.82828478512244</Lon><Name>ნორიოს ქუჩა - [2192]</Name><Routes>53:1</Routes><Sequence>0</Sequence><StopId>2192</StopId><Type>bus</Type><Virtual>false</Virtual></Stops><Stops><Forward>false</Forward><HasBoard>true</HasBoard><Lat>41.71570011414114</Lat><Lon>44.81811987726426</Lon><Name>ნორიოს აღმართი #54ბ  - [2193]</Name><Routes>53:1</Routes><Sequence>0</Sequence><StopId>2193</StopId><Type>bus</Type><Virtual>false</Virtual></Stops><Stops><Forward>false</Forward><HasBoard>true</HasBoard><Lat>41.71415589116439</Lat><Lon>44.81767921820467</Lon><Name>ნორიოს აღმართი #54ა - [2194]</Name><Routes>53:1</Routes><Sequence>0</Sequence><StopId>2194</StopId><Type>bus</Type><Virtual>false</Virtual></Stops><Stops><Forward>false</Forward><HasBoard>true</HasBoard><Lat>41.683493762434956</Lat><Lon>44.952750347227564</Lon><Name>აეროპორტის დასახლება - [3638]</Name><Routes>8:0</Routes><Sequence>0</Sequence><StopId>3638</StopId><Type>bus</Type><Virtual>true</Virtual></Stops><Stops><Forward>false</Forward><HasBoard>true</HasBoard><Lat>41.71396939598675</Lat><Lon>44.81483138285562</Lon><Name>ნორიოს აღმართი #55 - [2195]</Name><Routes>53:1</Routes><Sequence>0</Sequence><StopId>2195</StopId><Type>bus</Type><Virtual>false</Virtual></Stops><Stops><Forward>false</Forward><HasBoard>true</HasBoard><Lat>41.78735840596184</Lat><Lon>44.75264027822016</Lon><Name>მირიან მეფის ქუჩა #60 - [2506]</Name><Routes>14:1</Routes><Routes>15:1</Routes><Routes>21:0</Routes><Sequence>0</Sequence><StopId>2506</StopId><Type>bus</Type><Virtual>false</Virtual></Stops><Stops><Forward>false</Forward><HasBoard>true</HasBoard><Lat>41.71400882702721</Lat><Lon>44.8122286284888</Lon><Name>ჩეჩელაშვილის ქუჩა - [2196]</Name><Routes>53:1</Routes><Sequence>0</Sequence><StopId>2196</StopId><Type>bus</Type><Virtual>false</Virtual></Stops><Stops><Forward>false</Forward><HasBoard>true</HasBoard><Lat>41.71405100000239</Lat><Lon>44.809755000000585</Lon><Name>მიჩურინის ქუჩა  - [2197]</Name><Routes>53:1</Routes><Sequence>0</Sequence><StopId>2197</StopId><Type>bus</Type><Virtual>false</Virtual></Stops><Stops><Forward>false</Forward><HasBoard>true</HasBoard><Lat>41.71271152824218</Lat><Lon>44.80727670162586</Lon><Name>კაპანაძის ქუჩა #12 - [2198]</Name><Routes>53:1</Routes><Sequence>0</Sequence><StopId>2198</StopId><Type>bus</Type><Virtual>false</Virtual></Stops><Stops><Forward>false</Forward><HasBoard>true</HasBoard><Lat>41.68425610170415</Lat><Lon>44.94159943306097</Lon><Name>ხვედელიანის 39-ის მოპირდაპირედ - [3633]</Name><Routes>8:0</Routes><Sequence>0</Sequence><StopId>3633</StopId><Type>bus</Type><Virtual>true</Virtual></Stops><Stops><Forward>false</Forward><HasBoard>true</HasBoard><Lat>41.68483681792107</Lat><Lon>44.940540284018056</Lon><Name>მე-3 ქუჩის და ხვედელიანი ქ-ის გადაკვეთის მოპირდაპირედ - [3632]</Name><Routes>8:0</Routes><Sequence>0</Sequence><StopId>3632</StopId><Type>bus</Type><Virtual>true</Virtual></Stops><Stops><Forward>false</Forward><HasBoard>true</HasBoard><Lat>41.6857895533555</Lat><Lon>44.93874481192501</Lon><Name>მე-3 და მე-5 ქუჩების გადაკვეთის მოპირდაპირედ - [3631]</Name><Routes>8:0</Routes><Sequence>0</Sequence><StopId>3631</StopId><Type>bus</Type><Virtual>true</Virtual></Stops><Stops><Forward>false</Forward><HasBoard>true</HasBoard><Lat>41.68659262947668</Lat><Lon>44.93700746997021</Lon><Name>მე-3 ქუჩა #9 სახლის მიმდებარედ - [3630]</Name><Routes>8:0</Routes><Sequence>0</Sequence><StopId>3630</StopId><Type>bus</Type><Virtual>true</Virtual></Stops><Stops><Forward>false</Forward><HasBoard>true</HasBoard><Lat>41.68651615264503</Lat><Lon>44.95156179120368</Lon><Name>აეროპორტის დასახლება, 46-ე კორპუსის მიმდებარედ - [3637]</Name><Routes>8:0</Routes><Sequence>0</Sequence><StopId>3637</StopId><Type>bus</Type><Virtual>true</Virtual></Stops><Stops><Forward>false</Forward><HasBoard>true</HasBoard><Lat>41.796487999990966</Lat><Lon>44.76301400000076</Lon><Name>ფარნავაზ მეფის გამზირი - [2503]</Name><Routes>84:1</Routes><Sequence>0</Sequence><StopId>2503</StopId><Type>bus</Type><Virtual>true</Virtual></Stops><Stops><Forward>false</Forward><HasBoard>true</HasBoard><Lat>41.68662971587264</Lat><Lon>44.948578421797755</Lon><Name>აეროპორტის დასახლება, 41-ე კორპუსის მიმდებარედ - [3636]</Name><Routes>8:0</Routes><Sequence>0</Sequence><StopId>3636</StopId><Type>bus</Type><Virtual>true</Virtual></Stops><Stops><Forward>false</Forward><HasBoard>true</HasBoard><Lat>41.68651704107761</Lat><Lon>44.94576702425754</Lon><Name>ხვედელიანის 1/3-ის მოპირდაპირედ - [3635]</Name><Routes>8:0</Routes><Sequence>0</Sequence><StopId>3635</StopId><Type>bus</Type><Virtual>true</Virtual></Stops><Stops><Forward>false</Forward><HasBoard>true</HasBoard><Lat>41.69276235134695</Lat><Lon>44.95704506437134</Lon><Name>სოფელი დიდი ლილოს გადასახვევი - [2190]</Name><Routes>1:0</Routes><Routes>22:0</Routes><Routes>41:0</Routes><Sequence>0</Sequence><StopId>2190</StopId><Type>bus</Type><Virtual>true</Virtual></Stops><Stops><Forward>false</Forward><HasBoard>true</HasBoard><Lat>41.792274999991555</Lat><Lon>44.76491700000075</Lon><Name>იოანე პეტრიწის ქუჩა - [2501]</Name><Routes>14:0</Routes><Routes>15:0</Routes><Routes>21:1</Routes><Routes>26:1</Routes><Sequence>0</Sequence><StopId>2501</StopId><Type>bus</Type><Virtual>true</Virtual></Stops><Stops><Forward>false</Forward><HasBoard>true</HasBoard><Lat>41.685026702831244</Lat><Lon>44.94440087048962</Lon><Name>ხვედელიანის 21-ის მოპირდაპირედ - [3634]</Name><Routes>8:0</Routes><Sequence>0</Sequence><StopId>3634</StopId><Type>bus</Type><Virtual>true</Virtual></Stops><Stops><Forward>false</Forward><HasBoard>true</HasBoard><Lat>41.717886134613266</Lat><Lon>44.82229882837153</Lon><Name>ცაიშის ქუჩა #36 - [2191]</Name><Routes>53:1</Routes><Sequence>0</Sequence><StopId>2191</StopId><Type>bus</Type><Virtual>true</Virtual></Stops><Stops><Forward>false</Forward><HasBoard>true</HasBoard><Lat>41.718285000001785</Lat><Lon>44.76862900000071</Lon><Name>#162 საჯარო სკოლა - [1858]</Name><Routes>42:1</Routes><Sequence>0</Sequence><StopId>1858</StopId><Type>bus</Type><Virtual>false</Virtual></Stops><Stops><Forward>false</Forward><HasBoard>true</HasBoard><Lat>41.78540599999257</Lat><Lon>44.83453400000053</Lon><Name>მუხიანის III მ/რ  #5ა - [2902]</Name><Routes>79:1</Routes><Routes>86:1</Routes><Routes>95:1</Routes><Sequence>0</Sequence><StopId>2902</StopId><Type>bus</Type><Virtual>false</Virtual></Stops><Stops><Forward>false</Forward><HasBoard>true</HasBoard><Lat>41.71867952919493</Lat><Lon>44.766033290203154</Lon><Name>ჯვართამაღლების ეკლესია - [1859]</Name><Routes>42:1</Routes><Sequence>0</Sequence><StopId>1859</StopId><Type>bus</Type><Virtual>false</Virtual></Stops><Stops><Forward>false</Forward><HasBoard>true</HasBoard><Lat>41.71821400000177</Lat><Lon>44.768559000000714</Lon><Name>#162 საჯარო სკოლა - [1856]</Name><Routes>42:0</Routes><Sequence>0</Sequence><StopId>1856</StopId><Type>bus</Type><Virtual>true</Virtual></Stops><Stops><Forward>false</Forward><HasBoard>true</HasBoard><Lat>41.718990875723215</Lat><Lon>44.77073464691274</Lon><Name>იყალთოს გორა #40 - [1857]</Name><Routes>42:1</Routes><Sequence>0</Sequence><StopId>1857</StopId><Type>bus</Type><Virtual>false</Virtual></Stops><Stops><Forward>false</Forward><HasBoard>true</HasBoard><Lat>41.76025799999593</Lat><Lon>44.65798600000108</Lon><Name>სოფელი ლისი  - [2903]</Name><Routes>107:1</Routes><Sequence>0</Sequence><StopId>2903</StopId><Type>bus</Type><Virtual>true</Virtual></Stops><Stops><Forward>false</Forward><HasBoard>true</HasBoard><Lat>41.66591900000899</Lat><Lon>44.8963660000003</Lon><Name>ნაკადულის ქუჩა - [2906]</Name><Routes>72:1</Routes><Sequence>0</Sequence><StopId>2906</StopId><Type>bus</Type><Virtual>true</Virtual></Stops><Stops><Forward>false</Forward><HasBoard>true</HasBoard><Lat>41.66776200000871</Lat><Lon>44.89146400000031</Lon><Name>ოცხელების ქუჩა #8 - [2908]</Name><Routes>72:1</Routes><Sequence>0</Sequence><StopId>2908</StopId><Type>bus</Type><Virtual>true</Virtual></Stops><Stops><Forward>false</Forward><HasBoard>true</HasBoard><Lat>41.66665600000888</Lat><Lon>44.894382000000306</Lon><Name>ოცხელების ქუჩა #26 - [2907]</Name><Routes>72:1</Routes><Sequence>0</Sequence><StopId>2907</StopId><Type>bus</Type><Virtual>true</Virtual></Stops><Stops><Forward>false</Forward><HasBoard>true</HasBoard><Lat>41.719665426679725</Lat><Lon>44.760670573945276</Lon><Name>წმინდა ანტონ მარყოფელის სახელობის ეკლესია - [1851]</Name><Routes>42:1</Routes><Sequence>0</Sequence><StopId>1851</StopId><Type>bus</Type><Virtual>false</Virtual></Stops><Stops><Forward>false</Forward><HasBoard>true</HasBoard><Lat>41.71890800000166</Lat><Lon>44.76368700000072</Lon><Name>ზემო ფანასკერტელი - [1854]</Name><Routes>42:0</Routes><Sequence>0</Sequence><StopId>1854</StopId><Type>bus</Type><Virtual>true</Virtual></Stops><Stops><Forward>false</Forward><HasBoard>true</HasBoard><Lat>41.718578856681724</Lat><Lon>44.76606032139895</Lon><Name>ჯვართამაღლების ეკლესია - [1855]</Name><Routes>42:0</Routes><Sequence>0</Sequence><StopId>1855</StopId><Type>bus</Type><Virtual>true</Virtual></Stops><Stops><Forward>false</Forward><HasBoard>true</HasBoard><Lat>41.71969872655055</Lat><Lon>44.759612827048436</Lon><Name>წმინდა ანტონ მარყოფელის სახელობის ეკლესია - [1852]</Name><Routes>42:0</Routes><Sequence>0</Sequence><StopId>1852</StopId><Type>bus</Type><Virtual>true</Virtual></Stops><Stops><Forward>false</Forward><HasBoard>true</HasBoard><Lat>41.71867200000177</Lat><Lon>44.75959900000073</Lon><Name>ქვემო ფანასკერტელი - [1853]</Name><Routes>42:0</Routes><Sequence>0</Sequence><StopId>1853</StopId><Type>bus</Type><Virtual>true</Virtual></Stops><Stops><Forward>false</Forward><HasBoard>true</HasBoard><Lat>41.6724880000081</Lat><Lon>44.8646280000004</Lon><Name>ბოგდან ხმელნიცკის ქუჩა #147ა - [2909]</Name><Routes>55:0</Routes><Routes>72:1</Routes><Sequence>0</Sequence><StopId>2909</StopId><Type>bus</Type><Virtual>false</Virtual></Stops><Stops><Forward>false</Forward><HasBoard>true</HasBoard><Lat>41.68527700000635</Lat><Lon>44.999634999999984</Lon><Name>შპს თეთრონი - [2939]</Name><Routes>1:0</Routes><Sequence>0</Sequence><StopId>2939</StopId><Type>bus</Type><Virtual>true</Virtual></Stops><Stops><Forward>false</Forward><HasBoard>true</HasBoard><Lat>41.684477000006446</Lat><Lon>44.995887999999994</Lon><Name>ს/ს ეკრანი - [2938]</Name><Routes>1:0</Routes><Sequence>0</Sequence><StopId>2938</StopId><Type>bus</Type><Virtual>true</Virtual></Stops><Stops><Forward>false</Forward><HasBoard>true</HasBoard><Lat>41.68332900000661</Lat><Lon>44.99208500000002</Lon><Name>ფარმაცევტული ქარხანა ავერსი - [2937]</Name><Routes>1:0</Routes><Sequence>0</Sequence><StopId>2937</StopId><Type>bus</Type><Virtual>true</Virtual></Stops><Stops><Forward>false</Forward><HasBoard>true</HasBoard><Lat>41.68225400000679</Lat><Lon>44.98751800000002</Lon><Name>მეფრინველეობის ქუჩა - [2936]</Name><Routes>1:1</Routes><Sequence>0</Sequence><StopId>2936</StopId><Type>bus</Type><Virtual>true</Virtual></Stops><Stops><Forward>false</Forward><HasBoard>true</HasBoard><Lat>41.68009200000708</Lat><Lon>44.98709600000002</Lon><Name>მეფრინველეობის ქუჩა #3  - [2935]</Name><Routes>1:0</Routes><Sequence>0</Sequence><StopId>2935</StopId><Type>bus</Type><Virtual>true</Virtual></Stops><Stops><Forward>false</Forward><HasBoard>true</HasBoard><Lat>41.67964900000711</Lat><Lon>44.983880000000035</Lon><Name>მეფრინველეობის ქუჩა #17 ა - [2934]</Name><Routes>1:0</Routes><Sequence>0</Sequence><StopId>2934</StopId><Type>bus</Type><Virtual>true</Virtual></Stops><Stops><Forward>false</Forward><HasBoard>true</HasBoard><Lat>41.690252717918334</Lat><Lon>44.85031137700344</Lon><Name>ყარყარაშვილის ქუჩა #10 - [1885]</Name><Routes>43:1</Routes><Sequence>0</Sequence><StopId>1885</StopId><Type>bus</Type><Virtual>false</Virtual></Stops><Stops><Forward>false</Forward><HasBoard>true</HasBoard><Lat>41.68850240574665</Lat><Lon>44.851575575752214</Lon><Name>#74 საჯარო სკოლა  - [1886]</Name><Routes>43:1</Routes><Sequence>0</Sequence><StopId>1886</StopId><Type>bus</Type><Virtual>false</Virtual></Stops><Stops><Forward>false</Forward><HasBoard>true</HasBoard><Lat>41.67876300000718</Lat><Lon>44.84186200000046</Lon><Name>საექიმოს გასასვლელი #42 - [2931]</Name><Routes>40:0</Routes><Sequence>0</Sequence><StopId>2931</StopId><Type>bus</Type><Virtual>true</Virtual></Stops><Stops><Forward>false</Forward><HasBoard>true</HasBoard><Lat>41.7396039999989</Lat><Lon>44.80290400000061</Lon><Name>ლუბოვსკის #53 - [2930]</Name><Routes>36:1</Routes><Sequence>0</Sequence><StopId>2930</StopId><Type>bus</Type><Virtual>true</Virtual></Stops><Stops><Forward>false</Forward><HasBoard>true</HasBoard><Lat>41.696250302982826</Lat><Lon>44.84254740180956</Lon><Name>ყვარელის ქუჩა #98 - [1881]</Name><Routes>43:1</Routes><Sequence>0</Sequence><StopId>1881</StopId><Type>bus</Type><Virtual>false</Virtual></Stops><Stops><Forward>false</Forward><HasBoard>true</HasBoard><Lat>41.69486767212082</Lat><Lon>44.844124459017635</Lon><Name>ყვარელის ქუჩა #86 - [1882]</Name><Routes>43:1</Routes><Sequence>0</Sequence><StopId>1882</StopId><Type>bus</Type><Virtual>false</Virtual></Stops><Stops><Forward>false</Forward><HasBoard>true</HasBoard><Lat>41.69385591952927</Lat><Lon>44.84627603463585</Lon><Name>ყარყარაშვილის ქუჩა #80 - [1883]</Name><Routes>43:1</Routes><Sequence>0</Sequence><StopId>1883</StopId><Type>bus</Type><Virtual>true</Virtual></Stops><Stops><Forward>false</Forward><HasBoard>true</HasBoard><Lat>41.69180595846864</Lat><Lon>44.84855902848886</Lon><Name>გრიგოლ მათიაშვილის ქუჩა - [1884]</Name><Routes>43:1</Routes><Sequence>0</Sequence><StopId>1884</StopId><Type>bus</Type><Virtual>false</Virtual></Stops><Stops><Forward>false</Forward><HasBoard>true</HasBoard><Lat>41.698741000004496</Lat><Lon>44.88859200000034</Lon><Name>დამპალოს სასაფლაო - [2526]</Name><Routes>18:0</Routes><Routes>40:0</Routes><Sequence>0</Sequence><StopId>2526</StopId><Type>bus</Type><Virtual>true</Virtual></Stops><Stops><Forward>false</Forward><HasBoard>true</HasBoard><Lat>41.72475340503347</Lat><Lon>44.74558456789476</Lon><Name>ყაზბეგის გამზირი - [2927]</Name><Routes>21:0</Routes><Routes>82:1</Routes><Routes>88:0</Routes><Routes>140:1</Routes><Sequence>0</Sequence><StopId>2927</StopId><Type>bus</Type><Virtual>true</Virtual></Stops><Stops><Forward>false</Forward><HasBoard>true</HasBoard><Lat>41.68412200000649</Lat><Lon>44.893680000000316</Lon><Name>ქიზიყის ქუჩა #5 - [2929]</Name><Routes>2:1</Routes><Sequence>0</Sequence><StopId>2929</StopId><Type>bus</Type><Virtual>true</Virtual></Stops><Stops><Forward>false</Forward><HasBoard>true</HasBoard><Lat>41.698441818735134</Lat><Lon>44.842078484742274</Lon><Name>უშაკოვის ქუჩა #15 - [1878]</Name><Routes>43:0</Routes><Sequence>0</Sequence><StopId>1878</StopId><Type>bus</Type><Virtual>true</Virtual></Stops><Stops><Forward>false</Forward><HasBoard>true</HasBoard><Lat>41.698435000004515</Lat><Lon>44.84008400000047</Lon><Name>ყვარლის ქუჩა - [1879]</Name><Routes>43:1</Routes><Sequence>0</Sequence><StopId>1879</StopId><Type>bus</Type><Virtual>true</Virtual></Stops><Stops><Forward>false</Forward><HasBoard>true</HasBoard><Lat>41.69694302896944</Lat><Lon>44.844606714230466</Lon><Name>ტვიშის ქუჩა #5 - [1876]</Name><Routes>43:0</Routes><Sequence>0</Sequence><StopId>1876</StopId><Type>bus</Type><Virtual>true</Virtual></Stops><Stops><Forward>false</Forward><HasBoard>true</HasBoard><Lat>41.65925501897632</Lat><Lon>44.90377513299611</Lon><Name>ინდივიდუალური დასახლება #18-ის მოპირდაპირედ გარდაბნის გზატკეცილზე - [2920]</Name><Routes>55:1</Routes><Routes>72:0</Routes><Sequence>0</Sequence><StopId>2920</StopId><Type>bus</Type><Virtual>true</Virtual></Stops><Stops><Forward>false</Forward><HasBoard>true</HasBoard><Lat>41.69810024804494</Lat><Lon>44.84347529557365</Lon><Name>უშაკოვის ქუჩა #8 - [1877]</Name><Routes>43:0</Routes><Sequence>0</Sequence><StopId>1877</StopId><Type>bus</Type><Virtual>true</Virtual></Stops><Stops><Forward>false</Forward><HasBoard>true</HasBoard><Lat>41.69398867792969</Lat><Lon>44.846280326426715</Lon><Name>ყარყარაშვილის ქუჩა #73 - [1874]</Name><Routes>43:0</Routes><Sequence>0</Sequence><StopId>1874</StopId><Type>bus</Type><Virtual>true</Virtual></Stops><Stops><Forward>false</Forward><HasBoard>true</HasBoard><Lat>41.695046081021296</Lat><Lon>44.845041244251334</Lon><Name>#103 საჯარო სკოლა - [1875]</Name><Routes>43:0</Routes><Sequence>0</Sequence><StopId>1875</StopId><Type>bus</Type><Virtual>true</Virtual></Stops><Stops><Forward>false</Forward><HasBoard>true</HasBoard><Lat>41.69025834037523</Lat><Lon>44.85045950450738</Lon><Name>ყარყარაშვილის ქუჩა #25 - [1872]</Name><Routes>43:0</Routes><Sequence>0</Sequence><StopId>1872</StopId><Type>bus</Type><Virtual>true</Virtual></Stops><Stops><Forward>false</Forward><HasBoard>true</HasBoard><Lat>41.69215753087519</Lat><Lon>44.848332367363994</Lon><Name>კაკაბეთის ქუჩა - [1873]</Name><Routes>43:0</Routes><Sequence>0</Sequence><StopId>1873</StopId><Type>bus</Type><Virtual>true</Virtual></Stops><Stops><Forward>false</Forward><HasBoard>true</HasBoard><Lat>41.68844489781497</Lat><Lon>44.85175544526201</Lon><Name>#74 საჯარო სკოლა - [1871]</Name><Routes>43:0</Routes><Sequence>0</Sequence><StopId>1871</StopId><Type>bus</Type><Virtual>true</Virtual></Stops><Stops><Forward>false</Forward><HasBoard>true</HasBoard><Lat>41.697640107789525</Lat><Lon>44.840986678882324</Lon><Name>ყვარელის ქუჩა #114 - [1880]</Name><Routes>43:1</Routes><Sequence>0</Sequence><StopId>1880</StopId><Type>bus</Type><Virtual>false</Virtual></Stops><Stops><Forward>false</Forward><HasBoard>true</HasBoard><Lat>41.72697800000061</Lat><Lon>44.71865700000087</Lon><Name>ბედიას ქუჩა # 12ა - [1410]</Name><Routes>47:0</Routes><Sequence>0</Sequence><StopId>1410</StopId><Type>bus</Type><Virtual>true</Virtual></Stops><Stops><Forward>false</Forward><HasBoard>true</HasBoard><Lat>41.72691600000055</Lat><Lon>44.71884800000087</Lon><Name>ბედიას ქუჩა # 12ა-ს მოპირდაპირედ - [1411]</Name><Routes>47:1</Routes><Sequence>0</Sequence><StopId>1411</StopId><Type>bus</Type><Virtual>false</Virtual></Stops><Stops><Forward>false</Forward><HasBoard>true</HasBoard><Lat>41.729996000000135</Lat><Lon>44.758028000000756</Lon><Name>ბუდაპეშტის ქუჩა - [942]</Name><Routes>6:0</Routes><Sequence>0</Sequence><StopId>942</StopId><Type>bus</Type><Virtual>false</Virtual></Stops><Stops><Forward>false</Forward><HasBoard>true</HasBoard><Lat>41.73006700000018</Lat><Lon>44.75714300000075</Lon><Name>ბუდაპეშტის ქუჩა - [941]</Name><Routes>6:1</Routes><Sequence>0</Sequence><StopId>941</StopId><Type>bus</Type><Virtual>false</Virtual></Stops><Stops><Forward>false</Forward><HasBoard>true</HasBoard><Lat>41.72726673990073</Lat><Lon>44.72117732596389</Lon><Name>ბედიას ქუჩა # 16 - [1412]</Name><Routes>47:1</Routes><Sequence>0</Sequence><StopId>1412</StopId><Type>bus</Type><Virtual>false</Virtual></Stops><Stops><Forward>false</Forward><HasBoard>true</HasBoard><Lat>41.730483384576665</Lat><Lon>44.76274697230413</Lon><Name>ტაშკენტის ქუჩა - [940]</Name><Routes>6:0</Routes><Routes>29:0</Routes><Sequence>0</Sequence><StopId>940</StopId><Type>bus</Type><Virtual>false</Virtual></Stops><Stops><Forward>false</Forward><HasBoard>true</HasBoard><Lat>41.727392904650024</Lat><Lon>44.72127396625394</Lon><Name>ბედიას ქუჩა # 10 - [1413]</Name><Routes>47:0</Routes><Sequence>0</Sequence><StopId>1413</StopId><Type>bus</Type><Virtual>true</Virtual></Stops><Stops><Forward>false</Forward><HasBoard>true</HasBoard><Lat>41.73357499999965</Lat><Lon>44.72465200000085</Lon><Name>ნუცუბიძის IV მ/რ #28-ის მოპირდაპირედ - [3280]</Name><Routes>99:1</Routes><Sequence>0</Sequence><StopId>3280</StopId><Type>bus</Type><Virtual>false</Virtual></Stops><Stops><Forward>false</Forward><HasBoard>true</HasBoard><Lat>41.729505174071036</Lat><Lon>44.75254724148698</Lon><Name>ნუცუბიძის ქუჩა #22 - [946]</Name><Routes>6:0</Routes><Sequence>0</Sequence><StopId>946</StopId><Type>bus</Type><Virtual>false</Virtual></Stops><Stops><Forward>false</Forward><HasBoard>true</HasBoard><Lat>41.73354609947028</Lat><Lon>44.72850133549679</Lon><Name>#6 საბავშვო ბაღი - [3281]</Name><Routes>99:1</Routes><Sequence>0</Sequence><StopId>3281</StopId><Type>bus</Type><Virtual>true</Virtual></Stops><Stops><Forward>false</Forward><HasBoard>true</HasBoard><Lat>41.75167599999719</Lat><Lon>44.789600000000654</Lon><Name>კ/თ საქართველო - [1419]</Name><Routes>11:1</Routes><Routes>17:1</Routes><Routes>23:1</Routes><Routes>33:1</Routes><Routes>62:1</Routes><Routes>70:1</Routes><Routes>86:1</Routes><Routes>94:1</Routes><Routes>95:1</Routes><Sequence>0</Sequence><StopId>1419</StopId><Type>bus</Type><Virtual>false</Virtual></Stops><Stops><Forward>false</Forward><HasBoard>true</HasBoard><Lat>41.72962867569013</Lat><Lon>44.75228616350215</Lon><Name>ნუცუბიძის ქუჩა #13 - [945]</Name><Routes>6:1</Routes><Sequence>0</Sequence><StopId>945</StopId><Type>bus</Type><Virtual>false</Virtual></Stops><Stops><Forward>false</Forward><HasBoard>true</HasBoard><Lat>41.73416399999958</Lat><Lon>44.730543000000836</Lon><Name>ნუცუბიძის II მ/რ IV კვ. #5  - [3282]</Name><Routes>99:1</Routes><Sequence>0</Sequence><StopId>3282</StopId><Type>bus</Type><Virtual>false</Virtual></Stops><Stops><Forward>false</Forward><HasBoard>true</HasBoard><Lat>41.72568674612426</Lat><Lon>44.71976090228096</Lon><Name>ბედიას ქუჩა - [1416]</Name><Routes>6:1</Routes><Routes>47:0</Routes><Sequence>0</Sequence><StopId>1416</StopId><Type>bus</Type><Virtual>false</Virtual></Stops><Stops><Forward>false</Forward><HasBoard>true</HasBoard><Lat>41.729897000000214</Lat><Lon>44.75504100000075</Lon><Name>საბურთალოს სატელეფონო კვანძი - [944]</Name><Routes>6:1</Routes><Sequence>0</Sequence><StopId>944</StopId><Type>bus</Type><Virtual>false</Virtual></Stops><Stops><Forward>false</Forward><HasBoard>true</HasBoard><Lat>41.73373999999962</Lat><Lon>44.732396000000826</Lon><Name>წმინდა მიქაელის სახელობის ეკლესია - [3283]</Name><Routes>99:1</Routes><Sequence>0</Sequence><StopId>3283</StopId><Type>bus</Type><Virtual>true</Virtual></Stops><Stops><Forward>false</Forward><HasBoard>true</HasBoard><Lat>41.72555003399242</Lat><Lon>44.720084012995066</Lon><Name>ბედიას ქუჩა - [1417]</Name><Routes>6:0</Routes><Routes>47:1</Routes><Sequence>0</Sequence><StopId>1417</StopId><Type>bus</Type><Virtual>false</Virtual></Stops><Stops><Forward>false</Forward><HasBoard>true</HasBoard><Lat>41.72973000000019</Lat><Lon>44.75498100000076</Lon><Name>საბურთალოს სატელეფონო კვანძი - [943]</Name><Routes>6:0</Routes><Sequence>0</Sequence><StopId>943</StopId><Type>bus</Type><Virtual>false</Virtual></Stops><Stops><Forward>false</Forward><HasBoard>true</HasBoard><Lat>41.73263999999977</Lat><Lon>44.73260800000083</Lon><Name>ნუცუბიძის IV მ/რ, #1  - [3284]</Name><Routes>99:1</Routes><Sequence>0</Sequence><StopId>3284</StopId><Type>bus</Type><Virtual>false</Virtual></Stops><Stops><Forward>false</Forward><HasBoard>true</HasBoard><Lat>41.72897200000031</Lat><Lon>44.74780400000078</Lon><Name>ნუცუბიძის ქუჩა #38 - [949]</Name><Routes>6:0</Routes><Sequence>0</Sequence><StopId>949</StopId><Type>bus</Type><Virtual>true</Virtual></Stops><Stops><Forward>false</Forward><HasBoard>true</HasBoard><Lat>41.731281867007944</Lat><Lon>44.7283538090532</Lon><Name>ნუცუბიძის IV მ/რ. #12 - [3286]</Name><Routes>99:1</Routes><Sequence>0</Sequence><StopId>3286</StopId><Type>bus</Type><Virtual>false</Virtual></Stops><Stops><Forward>false</Forward><HasBoard>true</HasBoard><Lat>41.72940368937575</Lat><Lon>44.750333714288466</Lon><Name>ასათიანის ქუჩა - [948]</Name><Routes>6:1</Routes><Sequence>0</Sequence><StopId>948</StopId><Type>bus</Type><Virtual>false</Virtual></Stops><Stops><Forward>false</Forward><HasBoard>true</HasBoard><Lat>41.73303299999975</Lat><Lon>44.72080700000087</Lon><Name>#201 საბავშვო ბაღი - [3287]</Name><Routes>99:0</Routes><Sequence>0</Sequence><StopId>3287</StopId><Type>bus</Type><Virtual>true</Virtual></Stops><Stops><Forward>false</Forward><HasBoard>true</HasBoard><Lat>41.72930800000023</Lat><Lon>44.75072500000077</Lon><Name>ასათიანის ქუჩა - [947]</Name><Routes>6:0</Routes><Sequence>0</Sequence><StopId>947</StopId><Type>bus</Type><Virtual>false</Virtual></Stops><Stops><Forward>false</Forward><HasBoard>true</HasBoard><Lat>41.7333439999997</Lat><Lon>44.719725000000864</Lon><Name>ნუცუბიძის V მ/რ #8 - [3288]</Name><Routes>99:1</Routes><Sequence>0</Sequence><StopId>3288</StopId><Type>bus</Type><Virtual>false</Virtual></Stops><Stops><Forward>false</Forward><HasBoard>true</HasBoard><Lat>41.73473499999947</Lat><Lon>44.72233300000086</Lon><Name>ნუცუბიძის IV მ/რ #22-ის მოპირდაპირედ - [3279]</Name><Routes>99:1</Routes><Sequence>0</Sequence><StopId>3279</StopId><Type>bus</Type><Virtual>false</Virtual></Stops><Stops><Forward>false</Forward><HasBoard>true</HasBoard><Lat>41.736359999999216</Lat><Lon>44.72068900000087</Lon><Name>ნუცუბიძის IV მ/რ #20  - [3278]</Name><Routes>99:1</Routes><Sequence>0</Sequence><StopId>3278</StopId><Type>bus</Type><Virtual>false</Virtual></Stops><Stops><Forward>false</Forward><HasBoard>true</HasBoard><Lat>41.64175700001228</Lat><Lon>44.91370700000024</Lon><Name>რუსთავის გზატკეცილი # 65 - [2950]</Name><Routes>101:1</Routes><Routes>102:1</Routes><Sequence>0</Sequence><StopId>2950</StopId><Type>bus</Type><Virtual>true</Virtual></Stops><Stops><Forward>false</Forward><HasBoard>true</HasBoard><Lat>41.70678500000334</Lat><Lon>44.904796000000275</Lon><Name>ვარკეთილის მეურნეობა (სამგორის ქ-ის გადაკვეთასთან) - [2951]</Name><Routes>40:1</Routes><Sequence>0</Sequence><StopId>2951</StopId><Type>bus</Type><Virtual>true</Virtual></Stops><Stops><Forward>false</Forward><HasBoard>true</HasBoard><Lat>41.73480599999948</Lat><Lon>44.81574000000056</Lon><Name>წერონისის ქ. #126-ის პირდაპირ - [1822]</Name><Routes>36:1</Routes><Sequence>0</Sequence><StopId>1822</StopId><Type>bus</Type><Virtual>false</Virtual></Stops><Stops><Forward>false</Forward><HasBoard>true</HasBoard><Lat>41.73492007512683</Lat><Lon>44.8138631334203</Lon><Name>ბუგეულის ქუჩა - [1821]</Name><Routes>36:1</Routes><Sequence>0</Sequence><StopId>1821</StopId><Type>bus</Type><Virtual>false</Virtual></Stops><Stops><Forward>false</Forward><HasBoard>true</HasBoard><Lat>41.73235804593333</Lat><Lon>44.824822266456046</Lon><Name>სამღერეთის ქუჩა #38 - [1825]</Name><Routes>36:1</Routes><Routes>48:1</Routes><Sequence>0</Sequence><StopId>1825</StopId><Type>bus</Type><Virtual>true</Virtual></Stops><Stops><Forward>false</Forward><HasBoard>true</HasBoard><Lat>41.733928461254955</Lat><Lon>44.82495397882396</Lon><Name>კლდეკარის ქუჩა - [1824]</Name><Routes>36:1</Routes><Sequence>0</Sequence><StopId>1824</StopId><Type>bus</Type><Virtual>false</Virtual></Stops><Stops><Forward>false</Forward><HasBoard>true</HasBoard><Lat>41.73423399999957</Lat><Lon>44.82195000000055</Lon><Name>წერონისის ქუჩა #164 - [1823]</Name><Routes>36:1</Routes><Sequence>0</Sequence><StopId>1823</StopId><Type>bus</Type><Virtual>false</Virtual></Stops><Stops><Forward>false</Forward><HasBoard>true</HasBoard><Lat>41.72952022025355</Lat><Lon>44.80834593578254</Lon><Name>#8 საჯარო სკოლა  - [1829]</Name><Routes>36:1</Routes><Sequence>0</Sequence><StopId>1829</StopId><Type>bus</Type><Virtual>false</Virtual></Stops><Stops><Forward>false</Forward><HasBoard>true</HasBoard><Lat>41.72965146640104</Lat><Lon>44.81188134250799</Lon><Name>ურიდიას ქუჩა #137-ის მოპირდაპირედ - [1828]</Name><Routes>36:1</Routes><Sequence>0</Sequence><StopId>1828</StopId><Type>bus</Type><Virtual>false</Virtual></Stops><Stops><Forward>false</Forward><HasBoard>true</HasBoard><Lat>41.729666186666364</Lat><Lon>44.815006858530566</Lon><Name>ზაქარიაძის ქუჩა - [1827]</Name><Routes>36:1</Routes><Sequence>0</Sequence><StopId>1827</StopId><Type>bus</Type><Virtual>false</Virtual></Stops><Stops><Forward>false</Forward><HasBoard>true</HasBoard><Lat>41.74996596748973</Lat><Lon>44.78062278665349</Lon><Name>მ/ს დიდუბე - [1420]</Name><Routes>11:1</Routes><Routes>33:1</Routes><Routes>86:1</Routes><Sequence>0</Sequence><StopId>1420</StopId><Type>bus</Type><Virtual>true</Virtual></Stops><Stops><Forward>false</Forward><HasBoard>true</HasBoard><Lat>41.74981369463328</Lat><Lon>44.78128267389439</Lon><Name>მ/ს დიდუბე - [1422]</Name><Routes>11:0</Routes><Routes>33:0</Routes><Routes>86:0</Routes><Routes>94:0</Routes><Sequence>0</Sequence><StopId>1422</StopId><Type>bus</Type><Virtual>true</Virtual></Stops><Stops><Forward>false</Forward><HasBoard>true</HasBoard><Lat>41.7499285260785</Lat><Lon>44.78543728126761</Lon><Name>ჭყონდიდელის ქუჩა - [1423]</Name><Routes>11:0</Routes><Routes>33:0</Routes><Routes>86:0</Routes><Routes>94:0</Routes><Sequence>0</Sequence><StopId>1423</StopId><Type>bus</Type><Virtual>false</Virtual></Stops><Stops><Forward>false</Forward><HasBoard>true</HasBoard><Lat>41.7245280000009</Lat><Lon>44.72947100000083</Lon><Name>ვაჟა-ფშაველას გამზირი - [3290]</Name><Routes>47:0</Routes><Routes>88:0</Routes><Sequence>0</Sequence><StopId>3290</StopId><Type>bus</Type><Virtual>true</Virtual></Stops><Stops><Forward>false</Forward><HasBoard>true</HasBoard><Lat>41.75011886369235</Lat><Lon>44.78520542478409</Lon><Name>ჭყონდიდელის ქუჩა - [1424]</Name><Routes>11:1</Routes><Routes>33:1</Routes><Routes>86:1</Routes><Routes>94:1</Routes><Sequence>0</Sequence><StopId>1424</StopId><Type>bus</Type><Virtual>true</Virtual></Stops><Stops><Forward>false</Forward><HasBoard>true</HasBoard><Lat>41.75064699999729</Lat><Lon>44.79047700000066</Lon><Name>კ/თ &quot;საქართველო&quot; - [1425]</Name><Routes>11:0</Routes><Routes>17:0</Routes><Routes>23:0</Routes><Routes>33:0</Routes><Routes>62:0</Routes><Routes>70:0</Routes><Routes>86:0</Routes><Routes>94:0</Routes><Routes>95:0</Routes><Sequence>0</Sequence><StopId>1425</StopId><Type>bus</Type><Virtual>false</Virtual></Stops><Stops><Forward>false</Forward><HasBoard>true</HasBoard><Lat>41.72426726734432</Lat><Lon>44.77179202020277</Lon><Name>წმინდა კვირიკეს და ივლიტას სახელობის ეკლესია - [931]</Name><Routes>6:1</Routes><Routes>87:1</Routes><Sequence>0</Sequence><StopId>931</StopId><Type>bus</Type><Virtual>false</Virtual></Stops><Stops><Forward>false</Forward><HasBoard>true</HasBoard><Lat>41.75355899999692</Lat><Lon>44.78920100000066</Lon><Name>გვაზაურის ქუჩა - [1426]</Name><Routes>11:0</Routes><Routes>17:0</Routes><Routes>23:0</Routes><Routes>33:0</Routes><Routes>62:0</Routes><Routes>70:0</Routes><Routes>86:0</Routes><Routes>94:0</Routes><Routes>95:0</Routes><Sequence>0</Sequence><StopId>1426</StopId><Type>bus</Type><Virtual>false</Virtual></Stops><Stops><Forward>false</Forward><HasBoard>true</HasBoard><Lat>41.722211978953446</Lat><Lon>44.77360267556237</Lon><Name>ცინცაძის ქუჩა  - [930]</Name><Routes>6:0</Routes><Routes>47:1</Routes><Routes>85:0</Routes><Routes>150:0</Routes><Sequence>0</Sequence><StopId>930</StopId><Type>bus</Type><Virtual>false</Virtual></Stops><Stops><Forward>false</Forward><HasBoard>true</HasBoard><Lat>41.7541439999968</Lat><Lon>44.78857500000067</Lon><Name>ახალდაბის ქუჩა - [1427]</Name><Routes>11:1</Routes><Routes>17:1</Routes><Routes>23:1</Routes><Routes>33:1</Routes><Routes>62:1</Routes><Routes>70:1</Routes><Routes>86:1</Routes><Routes>94:1</Routes><Routes>95:1</Routes><Sequence>0</Sequence><StopId>1427</StopId><Type>bus</Type><Virtual>false</Virtual></Stops><Stops><Forward>false</Forward><HasBoard>true</HasBoard><Lat>41.75915899999612</Lat><Lon>44.78799300000067</Lon><Name>ქართულ ამერიკული უმაღლესი სკოლა - [1428]</Name><Routes>11:1</Routes><Routes>17:1</Routes><Routes>23:1</Routes><Routes>33:1</Routes><Routes>62:1</Routes><Routes>70:1</Routes><Routes>86:1</Routes><Routes>94:1</Routes><Routes>95:1</Routes><Sequence>0</Sequence><StopId>1428</StopId><Type>bus</Type><Virtual>false</Virtual></Stops><Stops><Forward>false</Forward><HasBoard>true</HasBoard><Lat>41.723981942117184</Lat><Lon>44.77166155943305</Lon><Name>მიცკევიჩის ქუჩა - [932]</Name><Routes>6:0</Routes><Routes>47:1</Routes><Routes>85:0</Routes><Routes>150:0</Routes><Sequence>0</Sequence><StopId>932</StopId><Type>bus</Type><Virtual>false</Virtual></Stops><Stops><Forward>false</Forward><HasBoard>true</HasBoard><Lat>41.75522691278113</Lat><Lon>44.76114699794208</Lon><Name>გოძიაშვილის ქუჩა #24 - [3295]</Name><Routes>27:0</Routes><Sequence>0</Sequence><StopId>3295</StopId><Type>bus</Type><Virtual>true</Virtual></Stops><Stops><Forward>false</Forward><HasBoard>true</HasBoard><Lat>41.75822199999626</Lat><Lon>44.788326000000666</Lon><Name>ქართულ ამერიკული უმაღლესი სკოლა - [1429]</Name><Routes>11:0</Routes><Routes>17:0</Routes><Routes>23:0</Routes><Routes>33:0</Routes><Routes>62:0</Routes><Routes>70:0</Routes><Routes>86:0</Routes><Routes>94:0</Routes><Routes>95:0</Routes><Sequence>0</Sequence><StopId>1429</StopId><Type>bus</Type><Virtual>false</Virtual></Stops><Stops><Forward>false</Forward><HasBoard>true</HasBoard><Lat>41.73852899999896</Lat><Lon>44.76968800000071</Lon><Name>გაგარინის ქუჩა #2 - [3292]</Name><Routes>14:1</Routes><Routes>24:1</Routes><Sequence>0</Sequence><StopId>3292</StopId><Type>bus</Type><Virtual>true</Virtual></Stops><Stops><Forward>false</Forward><HasBoard>true</HasBoard><Lat>41.733317999999706</Lat><Lon>44.76886400000072</Lon><Name>ოჩამჩირის ქუჩა - [3293]</Name><Routes>14:1</Routes><Routes>24:1</Routes><Sequence>0</Sequence><StopId>3293</StopId><Type>bus</Type><Virtual>true</Virtual></Stops><Stops><Forward>false</Forward><HasBoard>true</HasBoard><Lat>41.73107400000006</Lat><Lon>44.76702400000072</Lon><Name>ჟვანიას მოედანი - [937]</Name><Routes>6:1</Routes><Routes>29:1</Routes><Sequence>0</Sequence><StopId>937</StopId><Type>bus</Type><Virtual>false</Virtual></Stops><Stops><Forward>false</Forward><HasBoard>true</HasBoard><Lat>41.76396899999548</Lat><Lon>44.77534800000071</Lon><Name>დიღომი IV კვ. #5 - [3298]</Name><Routes>3:0</Routes><Routes>20:0</Routes><Routes>21:1</Routes><Routes>24:0</Routes><Routes>26:1</Routes><Routes>46:0</Routes><Routes>51:0</Routes><Sequence>0</Sequence><StopId>3298</StopId><Type>bus</Type><Virtual>false</Virtual></Stops><Stops><Forward>false</Forward><HasBoard>true</HasBoard><Lat>41.72711500000057</Lat><Lon>44.76843500000071</Lon><Name>პეკინის გამზირი #36 - [936]</Name><Routes>6:0</Routes><Sequence>0</Sequence><StopId>936</StopId><Type>bus</Type><Virtual>false</Virtual></Stops><Stops><Forward>false</Forward><HasBoard>true</HasBoard><Lat>41.769057999994814</Lat><Lon>44.77480300000071</Lon><Name>ტელეკომპანია იმედი - [3299]</Name><Routes>3:1</Routes><Routes>20:1</Routes><Routes>21:0</Routes><Routes>24:1</Routes><Routes>26:0</Routes><Routes>51:1</Routes><Sequence>0</Sequence><StopId>3299</StopId><Type>bus</Type><Virtual>true</Virtual></Stops><Stops><Forward>false</Forward><HasBoard>true</HasBoard><Lat>41.73070701111529</Lat><Lon>44.76346873698921</Lon><Name>ტაშკენტის ქუჩა - [939]</Name><Routes>6:1</Routes><Routes>29:1</Routes><Sequence>0</Sequence><StopId>939</StopId><Type>bus</Type><Virtual>false</Virtual></Stops><Stops><Forward>false</Forward><HasBoard>true</HasBoard><Lat>41.73091000000003</Lat><Lon>44.76693500000072</Lon><Name>ჟვანიას მოედანი - [938]</Name><Routes>6:0</Routes><Routes>29:0</Routes><Sequence>0</Sequence><StopId>938</StopId><Type>bus</Type><Virtual>false</Virtual></Stops><Stops><Forward>false</Forward><HasBoard>true</HasBoard><Lat>41.72235427121887</Lat><Lon>44.773866912478695</Lon><Name>ცინცაძის ქუჩა  - [929]</Name><Routes>6:1</Routes><Routes>47:0</Routes><Routes>87:1</Routes><Sequence>0</Sequence><StopId>929</StopId><Type>bus</Type><Virtual>false</Virtual></Stops><Stops><Forward>false</Forward><HasBoard>true</HasBoard><Lat>41.686781000006164</Lat><Lon>45.001078999999976</Lon><Name>ლოჭინის დასახლება #1 - [2940]</Name><Routes>1:1</Routes><Sequence>0</Sequence><StopId>2940</StopId><Type>bus</Type><Virtual>false</Virtual></Stops><Stops><Forward>false</Forward><HasBoard>true</HasBoard><Lat>41.72938400000026</Lat><Lon>44.73513500000082</Lon><Name># 171 საჯარო სკოლა - [3289]</Name><Routes>49:0</Routes><Sequence>0</Sequence><StopId>3289</StopId><Type>bus</Type><Virtual>true</Virtual></Stops><Stops><Forward>false</Forward><HasBoard>true</HasBoard><Lat>41.813383999988645</Lat><Lon>44.808960000000624</Lon><Name>26-მაისის ქუჩა - [2943]</Name><Routes>45:1</Routes><Sequence>0</Sequence><StopId>2943</StopId><Type>bus</Type><Virtual>true</Virtual></Stops><Stops><Forward>false</Forward><HasBoard>true</HasBoard><Lat>41.67584700000758</Lat><Lon>44.81329700000055</Lon><Name>ორთაჭალის ქუჩა #90ა - [2944]</Name><Routes>80:1</Routes><Sequence>0</Sequence><StopId>2944</StopId><Type>bus</Type><Virtual>true</Virtual></Stops><Stops><Forward>false</Forward><HasBoard>true</HasBoard><Lat>41.73031107315069</Lat><Lon>44.8188754961005</Lon><Name>ურიდიას ქუჩა #193 - [1811]</Name><Routes>36:0</Routes><Sequence>0</Sequence><StopId>1811</StopId><Type>bus</Type><Virtual>true</Virtual></Stops><Stops><Forward>false</Forward><HasBoard>true</HasBoard><Lat>41.72959602520394</Lat><Lon>44.81508875878421</Lon><Name>ზაქარიაძის ქუჩა - [1810]</Name><Routes>36:0</Routes><Sequence>0</Sequence><StopId>1810</StopId><Type>bus</Type><Virtual>true</Virtual></Stops><Stops><Forward>false</Forward><HasBoard>true</HasBoard><Lat>41.80552599998974</Lat><Lon>44.77074300000075</Lon><Name>აგრარული უნივერსიტეტი - [2942]</Name><Routes>84:1</Routes><Routes>121:1</Routes><Sequence>0</Sequence><StopId>2942</StopId><Type>bus</Type><Virtual>true</Virtual></Stops><Stops><Forward>false</Forward><HasBoard>true</HasBoard><Lat>41.73194099999988</Lat><Lon>44.827447000000525</Lon><Name>სამღერეთის ქუჩა #60 - [1813]</Name><Routes>36:0</Routes><Routes>48:0</Routes><Sequence>0</Sequence><StopId>1813</StopId><Type>bus</Type><Virtual>true</Virtual></Stops><Stops><Forward>false</Forward><HasBoard>true</HasBoard><Lat>41.57483400002137</Lat><Lon>44.93587500000017</Lon><Name>სასჯელაღსრულების დაწესებულება - [2947]</Name><Routes>102:1</Routes><Sequence>0</Sequence><StopId>2947</StopId><Type>bus</Type><Virtual>true</Virtual></Stops><Stops><Forward>false</Forward><HasBoard>true</HasBoard><Lat>41.73027500000011</Lat><Lon>44.82923100000053</Lon><Name>სამღერეთის ქუჩა - [1812]</Name><Routes>36:0</Routes><Routes>48:0</Routes><Sequence>0</Sequence><StopId>1812</StopId><Type>bus</Type><Virtual>true</Virtual></Stops><Stops><Forward>false</Forward><HasBoard>true</HasBoard><Lat>41.583529000020214</Lat><Lon>44.9236020000002</Lon><Name>კრწანისის სასწავლო ცენტრი - [2948]</Name><Routes>102:1</Routes><Routes>102:0</Routes><Sequence>0</Sequence><StopId>2948</StopId><Type>bus</Type><Virtual>true</Virtual></Stops><Stops><Forward>false</Forward><HasBoard>true</HasBoard><Lat>41.73447824856798</Lat><Lon>44.820485151586894</Lon><Name>წერონისის ქუჩა #160 - [1815]</Name><Routes>36:0</Routes><Sequence>0</Sequence><StopId>1815</StopId><Type>bus</Type><Virtual>false</Virtual></Stops><Stops><Forward>false</Forward><HasBoard>true</HasBoard><Lat>41.7340289999996</Lat><Lon>44.717492000000874</Lon><Name>ნუცუბიძის V მ/რ #11  - [2945]</Name><Routes>99:1</Routes><Sequence>0</Sequence><StopId>2945</StopId><Type>bus</Type><Virtual>true</Virtual></Stops><Stops><Forward>false</Forward><HasBoard>true</HasBoard><Lat>41.73406865416647</Lat><Lon>44.82505041647238</Lon><Name>წერონისის ქუჩა #188 - [1814]</Name><Routes>36:0</Routes><Sequence>0</Sequence><StopId>1814</StopId><Type>bus</Type><Virtual>true</Virtual></Stops><Stops><Forward>false</Forward><HasBoard>true</HasBoard><Lat>41.73489499999947</Lat><Lon>44.81611300000056</Lon><Name>მაჩხაანის ქუჩა - [1816]</Name><Routes>36:0</Routes><Sequence>0</Sequence><StopId>1816</StopId><Type>bus</Type><Virtual>true</Virtual></Stops><Stops><Forward>false</Forward><HasBoard>true</HasBoard><Lat>41.61097000001649</Lat><Lon>44.90070400000027</Lon><Name>სოფელი კრწანისის საჯარო სკოლა - [2949]</Name><Routes>101:1</Routes><Sequence>0</Sequence><StopId>2949</StopId><Type>bus</Type><Virtual>true</Virtual></Stops><Stops><Forward>false</Forward><HasBoard>true</HasBoard><Lat>41.77013483952281</Lat><Lon>44.79251173172059</Lon><Name>გუდამაყრის ქუჩა - [1436]</Name><Routes>11:1</Routes><Routes>23:1</Routes><Routes>33:1</Routes><Routes>62:1</Routes><Routes>70:1</Routes><Routes>86:1</Routes><Sequence>0</Sequence><StopId>1436</StopId><Type>bus</Type><Virtual>false</Virtual></Stops><Stops><Forward>false</Forward><HasBoard>true</HasBoard><Lat>41.7009680000042</Lat><Lon>44.80296600000059</Lon><Name>მშრალი ხიდი (მოთხოვნით) - [920]</Name><Routes>20:1</Routes><Routes>23:1</Routes><Routes>95:1</Routes><Sequence>0</Sequence><StopId>920</StopId><Type>bus</Type><Virtual>true</Virtual></Stops><Stops><Forward>false</Forward><HasBoard>true</HasBoard><Lat>41.77006299999464</Lat><Lon>44.792825000000654</Lon><Name>გუდამაყრის ქუჩა - [1437]</Name><Routes>11:0</Routes><Routes>23:0</Routes><Routes>33:0</Routes><Routes>62:0</Routes><Routes>70:0</Routes><Routes>86:0</Routes><Sequence>0</Sequence><StopId>1437</StopId><Type>bus</Type><Virtual>false</Virtual></Stops><Stops><Forward>false</Forward><HasBoard>true</HasBoard><Lat>41.76594499999525</Lat><Lon>44.79030300000066</Lon><Name>მ/ს ღრმაღელე - [1434]</Name><Routes>11:0</Routes><Routes>17:0</Routes><Routes>23:0</Routes><Routes>33:0</Routes><Routes>60:0</Routes><Routes>62:0</Routes><Routes>70:0</Routes><Routes>86:0</Routes><Routes>94:0</Routes><Routes>95:0</Routes><Sequence>0</Sequence><StopId>1434</StopId><Type>bus</Type><Virtual>false</Virtual></Stops><Stops><Forward>false</Forward><HasBoard>true</HasBoard><Lat>41.76617999999517</Lat><Lon>44.79004100000066</Lon><Name>მ/ს ღრმაღელე - [1435]</Name><Routes>11:1</Routes><Routes>17:1</Routes><Routes>23:1</Routes><Routes>33:1</Routes><Routes>62:1</Routes><Routes>70:1</Routes><Routes>86:1</Routes><Routes>94:1</Routes><Routes>95:1</Routes><Sequence>0</Sequence><StopId>1435</StopId><Type>bus</Type><Virtual>false</Virtual></Stops><Stops><Forward>false</Forward><HasBoard>true</HasBoard><Lat>41.76310099999557</Lat><Lon>44.78860900000067</Lon><Name>ლიახვის ქუჩა - [1432]</Name><Routes>11:1</Routes><Routes>17:1</Routes><Routes>23:1</Routes><Routes>33:1</Routes><Routes>62:1</Routes><Routes>70:1</Routes><Routes>86:1</Routes><Routes>94:1</Routes><Routes>95:1</Routes><Sequence>0</Sequence><StopId>1432</StopId><Type>bus</Type><Virtual>false</Virtual></Stops><Stops><Forward>false</Forward><HasBoard>true</HasBoard><Lat>41.76294268327138</Lat><Lon>44.78886379448048</Lon><Name>ლიახვის ქუჩა - [1433]</Name><Routes>11:0</Routes><Routes>17:0</Routes><Routes>23:0</Routes><Routes>33:0</Routes><Routes>60:1</Routes><Routes>62:0</Routes><Routes>70:0</Routes><Routes>86:0</Routes><Routes>94:0</Routes><Routes>95:0</Routes><Sequence>0</Sequence><StopId>1433</StopId><Type>bus</Type><Virtual>false</Virtual></Stops><Stops><Forward>false</Forward><HasBoard>true</HasBoard><Lat>41.756363999996566</Lat><Lon>44.78833300000067</Lon><Name>გურამიშვილის გამზირი #11 - [1430]</Name><Routes>11:0</Routes><Routes>17:0</Routes><Routes>23:0</Routes><Routes>33:0</Routes><Routes>62:0</Routes><Routes>70:0</Routes><Routes>86:0</Routes><Routes>94:0</Routes><Routes>95:0</Routes><Sequence>0</Sequence><StopId>1430</StopId><Type>bus</Type><Virtual>false</Virtual></Stops><Stops><Forward>false</Forward><HasBoard>true</HasBoard><Lat>41.7559629999966</Lat><Lon>44.78803300000067</Lon><Name>გურამიშვილის გამზირი #11-ის მოპირდაპირედ - [1431]</Name><Routes>11:1</Routes><Routes>17:1</Routes><Routes>23:1</Routes><Routes>33:1</Routes><Routes>62:1</Routes><Routes>70:1</Routes><Routes>86:1</Routes><Routes>94:1</Routes><Routes>95:1</Routes><Sequence>0</Sequence><StopId>1431</StopId><Type>bus</Type><Virtual>false</Virtual></Stops><Stops><Forward>false</Forward><HasBoard>true</HasBoard><Lat>41.72105800000137</Lat><Lon>44.77525300000068</Lon><Name>ბუკიას ბაღი - [928]</Name><Routes>6:1</Routes><Routes>47:0</Routes><Routes>87:1</Routes><Sequence>0</Sequence><StopId>928</StopId><Type>bus</Type><Virtual>false</Virtual></Stops><Stops><Forward>false</Forward><HasBoard>true</HasBoard><Lat>41.71949700000162</Lat><Lon>44.77692500000069</Lon><Name>პეკინის გამზირი #3 - [926]</Name><Routes>6:1</Routes><Routes>42:0</Routes><Routes>47:0</Routes><Routes>87:1</Routes><Sequence>0</Sequence><StopId>926</StopId><Type>bus</Type><Virtual>false</Virtual></Stops><Stops><Forward>false</Forward><HasBoard>true</HasBoard><Lat>41.717803528745755</Lat><Lon>44.777912881027824</Lon><Name>26 მაისის მოედანი - [925]</Name><Routes>6:0</Routes><Routes>14:1</Routes><Routes>29:0</Routes><Routes>42:1</Routes><Routes>47:1</Routes><Routes>49:1</Routes><Routes>51:1</Routes><Routes>85:0</Routes><Routes>91:0</Routes><Routes>92:0</Routes><Routes>150:0</Routes><Sequence>0</Sequence><StopId>925</StopId><Type>bus</Type><Virtual>false</Virtual></Stops><Stops><Forward>false</Forward><HasBoard>true</HasBoard><Lat>41.7159530925668</Lat><Lon>44.77860527515411</Lon><Name>საზოგადოებრივი მაუწყებელი - [924]</Name><Routes>6:0</Routes><Routes>14:1</Routes><Routes>29:0</Routes><Routes>42:1</Routes><Routes>47:1</Routes><Routes>49:1</Routes><Routes>51:1</Routes><Routes>65:1</Routes><Routes>85:1</Routes><Routes>91:0</Routes><Routes>92:0</Routes><Routes>150:0</Routes><Sequence>0</Sequence><StopId>924</StopId><Type>bus</Type><Virtual>false</Virtual></Stops><Stops><Forward>false</Forward><HasBoard>true</HasBoard><Lat>41.77254299999435</Lat><Lon>44.794102000000656</Lon><Name>#114 საჯარო სკოლა - [1438]</Name><Routes>11:0</Routes><Routes>23:0</Routes><Routes>33:0</Routes><Routes>62:0</Routes><Routes>70:0</Routes><Routes>86:0</Routes><Sequence>0</Sequence><StopId>1438</StopId><Type>bus</Type><Virtual>false</Virtual></Stops><Stops><Forward>false</Forward><HasBoard>true</HasBoard><Lat>41.78297499999283</Lat><Lon>44.79837100000064</Lon><Name>მ/ს სარაჯიშვილი - [1439]</Name><Routes>11:1</Routes><Routes>23:1</Routes><Routes>33:1</Routes><Routes>70:1</Routes><Routes>86:1</Routes><Sequence>0</Sequence><StopId>1439</StopId><Type>bus</Type><Virtual>false</Virtual></Stops><Stops><Forward>false</Forward><HasBoard>true</HasBoard><Lat>41.79605167262491</Lat><Lon>44.76995916985258</Lon><Name>მუხათგვერდის ასახვევი - [1844]</Name><Routes>38:0</Routes><Routes>69:1</Routes><Routes>84:1</Routes><Routes>121:1</Routes><Sequence>0</Sequence><StopId>1844</StopId><Type>bus</Type><Virtual>true</Virtual></Stops><Stops><Forward>false</Forward><HasBoard>true</HasBoard><Lat>41.79928299999065</Lat><Lon>44.77108200000074</Lon><Name>დიღმის სასწავლო მეურნეობა - [1843]</Name><Routes>38:1</Routes><Routes>84:1</Routes><Routes>121:0</Routes><Sequence>0</Sequence><StopId>1843</StopId><Type>bus</Type><Virtual>true</Virtual></Stops><Stops><Forward>false</Forward><HasBoard>true</HasBoard><Lat>41.69057200000561</Lat><Lon>44.8338150000005</Lon><Name>დოესის ქუჩა - [1842]</Name><Routes>37:1</Routes><Sequence>0</Sequence><StopId>1842</StopId><Type>bus</Type><Virtual>false</Virtual></Stops><Stops><Forward>false</Forward><HasBoard>true</HasBoard><Lat>41.691163364059456</Lat><Lon>44.8366090218988</Lon><Name>ბუშის ქუჩა #24 - [1841]</Name><Routes>37:1</Routes><Sequence>0</Sequence><StopId>1841</StopId><Type>bus</Type><Virtual>false</Virtual></Stops><Stops><Forward>false</Forward><HasBoard>true</HasBoard><Lat>41.69030600000564</Lat><Lon>44.84143000000047</Lon><Name>ბუშის ქუჩა #78 - [1840]</Name><Routes>37:1</Routes><Sequence>0</Sequence><StopId>1840</StopId><Type>bus</Type><Virtual>false</Virtual></Stops><Stops><Forward>false</Forward><HasBoard>true</HasBoard><Lat>41.70533237413923</Lat><Lon>44.800470633363794</Lon><Name>დავით აღმაშენებლის გამზ. #41/40 (მოთხოვნით) - [918]</Name><Routes>20:1</Routes><Routes>23:1</Routes><Routes>59:0</Routes><Routes>91:0</Routes><Routes>95:1</Routes><Sequence>0</Sequence><StopId>918</StopId><Type>bus</Type><Virtual>true</Virtual></Stops><Stops><Forward>false</Forward><HasBoard>true</HasBoard><Lat>41.70311756065434</Lat><Lon>44.80395262167331</Lon><Name>დავით აღმაშენებლის გამზ. #2/8 (ზაარბრიუკენის მ-ნი) - [919]</Name><Routes>20:1</Routes><Routes>23:1</Routes><Routes>91:0</Routes><Routes>95:1</Routes><Sequence>0</Sequence><StopId>919</StopId><Type>bus</Type><Virtual>true</Virtual></Stops><Stops><Forward>false</Forward><HasBoard>true</HasBoard><Lat>41.77510723899725</Lat><Lon>44.79483473476612</Lon><Name>მ/ს გურამიშვილი - [1440]</Name><Routes>11:1</Routes><Routes>23:1</Routes><Routes>33:1</Routes><Routes>70:1</Routes><Routes>86:1</Routes><Sequence>0</Sequence><StopId>1440</StopId><Type>bus</Type><Virtual>false</Virtual></Stops><Stops><Forward>false</Forward><HasBoard>true</HasBoard><Lat>41.720067275547294</Lat><Lon>44.76379806395725</Lon><Name>ბახტრიონის ქუჩა #24 - [1849]</Name><Routes>42:1</Routes><Sequence>0</Sequence><StopId>1849</StopId><Type>bus</Type><Virtual>false</Virtual></Stops><Stops><Forward>false</Forward><HasBoard>true</HasBoard><Lat>41.72047800000147</Lat><Lon>44.76774300000071</Lon><Name>ბახტრიონი - [1848]</Name><Routes>42:1</Routes><Sequence>0</Sequence><StopId>1848</StopId><Type>bus</Type><Virtual>false</Virtual></Stops><Stops><Forward>false</Forward><HasBoard>true</HasBoard><Lat>41.720881080271376</Lat><Lon>44.769747294187745</Lon><Name>ქვემო ბახტრიონი - [1847]</Name><Routes>42:0</Routes><Sequence>0</Sequence><StopId>1847</StopId><Type>bus</Type><Virtual>true</Virtual></Stops><Stops><Forward>false</Forward><HasBoard>true</HasBoard><Lat>41.720758457198876</Lat><Lon>44.76957786664907</Lon><Name>ქვემო ბახტრიონი - [1846]</Name><Routes>42:1</Routes><Sequence>0</Sequence><StopId>1846</StopId><Type>bus</Type><Virtual>false</Virtual></Stops><Stops><Forward>false</Forward><HasBoard>true</HasBoard><Lat>41.721363000001375</Lat><Lon>44.77386000000069</Lon><Name>ბუკიას ბაღი - [1845]</Name><Routes>42:0</Routes><Sequence>0</Sequence><StopId>1845</StopId><Type>bus</Type><Virtual>false</Virtual></Stops><Stops><Forward>false</Forward><HasBoard>true</HasBoard><Lat>41.78415699999272</Lat><Lon>44.80933400000061</Lon><Name>#154 საჯარო სკოლა - [1445]</Name><Routes>17:0</Routes><Routes>75:0</Routes><Routes>86:0</Routes><Sequence>0</Sequence><StopId>1445</StopId><Type>bus</Type><Virtual>false</Virtual></Stops><Stops><Forward>false</Forward><HasBoard>true</HasBoard><Lat>41.780925661039994</Lat><Lon>44.81169339262538</Lon><Name>ლეკიშვილის ქუჩა - [1446]</Name><Routes>17:0</Routes><Routes>75:0</Routes><Routes>86:0</Routes><Sequence>0</Sequence><StopId>1446</StopId><Type>bus</Type><Virtual>false</Virtual></Stops><Stops><Forward>false</Forward><HasBoard>true</HasBoard><Lat>41.777429425265716</Lat><Lon>44.816372598765625</Lon><Name>ზღვის უბნის III მ/რ II კვ. #23-ის მოპირდაპირედ - [1447]</Name><Routes>17:0</Routes><Routes>75:0</Routes><Routes>86:0</Routes><Sequence>0</Sequence><StopId>1447</StopId><Type>bus</Type><Virtual>false</Virtual></Stops><Stops><Forward>false</Forward><HasBoard>true</HasBoard><Lat>41.77707399999368</Lat><Lon>44.82168500000057</Lon><Name>#159  საჯარო სკოლა - [1448]</Name><Routes>17:0</Routes><Routes>86:0</Routes><Sequence>0</Sequence><StopId>1448</StopId><Type>bus</Type><Virtual>false</Virtual></Stops><Stops><Forward>false</Forward><HasBoard>true</HasBoard><Lat>41.77485699999402</Lat><Lon>44.79507000000065</Lon><Name>მ/ს გურამიშვილი - [1441]</Name><Routes>11:0</Routes><Routes>23:0</Routes><Routes>33:0</Routes><Routes>70:0</Routes><Routes>86:0</Routes><Sequence>0</Sequence><StopId>1441</StopId><Type>bus</Type><Virtual>false</Virtual></Stops><Stops><Forward>false</Forward><HasBoard>true</HasBoard><Lat>41.77810499999352</Lat><Lon>44.79597500000065</Lon><Name>შატილის ქუჩა - [1442]</Name><Routes>11:0</Routes><Routes>23:0</Routes><Routes>33:0</Routes><Routes>70:0</Routes><Routes>86:0</Routes><Sequence>0</Sequence><StopId>1442</StopId><Type>bus</Type><Virtual>false</Virtual></Stops><Stops><Forward>false</Forward><HasBoard>true</HasBoard><Lat>41.785376999992515</Lat><Lon>44.805839000000624</Lon><Name>სასამართლო - [1443]</Name><Routes>17:1</Routes><Routes>75:0</Routes><Routes>86:0</Routes><Sequence>0</Sequence><StopId>1443</StopId><Type>bus</Type><Virtual>true</Virtual></Stops><Stops><Forward>false</Forward><HasBoard>true</HasBoard><Lat>41.784695999992636</Lat><Lon>44.80774300000061</Lon><Name>ზღვის უბნის IV მ/რ #5-ის მოპირდაპირედ - [1444]</Name><Routes>17:0</Routes><Routes>75:0</Routes><Routes>86:0</Routes><Sequence>0</Sequence><StopId>1444</StopId><Type>bus</Type><Virtual>false</Virtual></Stops><Stops><Forward>false</Forward><HasBoard>true</HasBoard><Lat>41.70989575523549</Lat><Lon>44.79695524850668</Lon><Name>მარჯანიშვილის ქუცა - [915]</Name><Routes>33:1</Routes><Routes>53:0</Routes><Sequence>0</Sequence><StopId>915</StopId><Type>bus</Type><Virtual>true</Virtual></Stops><Stops><Forward>false</Forward><HasBoard>true</HasBoard><Lat>41.71366953212812</Lat><Lon>44.79417836737458</Lon><Name>ტოვსტონოგოვის ქუჩა - [914]</Name><Routes>20:1</Routes><Routes>33:1</Routes><Routes>53:0</Routes><Sequence>0</Sequence><StopId>914</StopId><Type>bus</Type><Virtual>true</Virtual></Stops><Stops><Forward>false</Forward><HasBoard>true</HasBoard><Lat>41.70659018520385</Lat><Lon>44.79944671525944</Lon><Name>მიხაილოვის საავადმყოფო - [917]</Name><Routes>20:1</Routes><Routes>59:0</Routes><Routes>91:0</Routes><Sequence>0</Sequence><StopId>917</StopId><Type>bus</Type><Virtual>false</Virtual></Stops><Stops><Forward>false</Forward><HasBoard>true</HasBoard><Lat>41.70859400000309</Lat><Lon>44.79791900000062</Lon><Name>პეტერბურგის ქუჩა - [916]</Name><Routes>20:1</Routes><Routes>59:0</Routes><Routes>91:0</Routes><Sequence>0</Sequence><StopId>916</StopId><Type>bus</Type><Virtual>true</Virtual></Stops><Stops><Forward>false</Forward><HasBoard>true</HasBoard><Lat>41.78429899999271</Lat><Lon>44.82654000000055</Lon><Name>დუმბაძის გამზირი - [1449]</Name><Routes>86:0</Routes><Sequence>0</Sequence><StopId>1449</StopId><Type>bus</Type><Virtual>true</Virtual></Stops><Stops><Forward>false</Forward><HasBoard>true</HasBoard><Lat>41.7230600000011</Lat><Lon>44.791343000000644</Lon><Name>დინამო არენა - [911]</Name><Routes>15:1</Routes><Routes>20:1</Routes><Routes>21:0</Routes><Routes>27:1</Routes><Routes>33:1</Routes><Routes>46:1</Routes><Routes>84:1</Routes><Routes>86:1</Routes><Sequence>0</Sequence><StopId>911</StopId><Type>bus</Type><Virtual>false</Virtual></Stops><Stops><Forward>false</Forward><HasBoard>true</HasBoard><Lat>41.72692600000061</Lat><Lon>44.78883900000066</Lon><Name>მ/ს წერეთელი - [910]</Name><Routes>11:1</Routes><Routes>15:1</Routes><Routes>20:1</Routes><Routes>21:0</Routes><Routes>27:1</Routes><Routes>33:1</Routes><Routes>46:1</Routes><Routes>84:1</Routes><Routes>86:1</Routes><Sequence>0</Sequence><StopId>910</StopId><Type>bus</Type><Virtual>false</Virtual></Stops><Stops><Forward>false</Forward><HasBoard>true</HasBoard><Lat>41.71867485354777</Lat><Lon>44.790457577528265</Lon><Name>აღმაშენებლის გამზირი - [913]</Name><Routes>15:1</Routes><Routes>20:1</Routes><Routes>27:1</Routes><Routes>46:1</Routes><Routes>84:1</Routes><Routes>86:1</Routes><Sequence>0</Sequence><StopId>913</StopId><Type>bus</Type><Virtual>true</Virtual></Stops><Stops><Forward>false</Forward><HasBoard>true</HasBoard><Lat>41.720751251801076</Lat><Lon>44.788933903925845</Lon><Name>მუსიკალური კომედიის და დრამის თეატრი - [912]</Name><Routes>15:1</Routes><Routes>20:1</Routes><Routes>27:1</Routes><Routes>33:1</Routes><Routes>46:1</Routes><Routes>84:1</Routes><Routes>86:1</Routes><Sequence>0</Sequence><StopId>912</StopId><Type>bus</Type><Virtual>false</Virtual></Stops><Stops><Forward>false</Forward><HasBoard>true</HasBoard><Lat>41.72874952268911</Lat><Lon>44.80404903432471</Lon><Name>მანაგაძის ქუჩა - [1831]</Name><Routes>36:1</Routes><Sequence>0</Sequence><StopId>1831</StopId><Type>bus</Type><Virtual>false</Virtual></Stops><Stops><Forward>false</Forward><HasBoard>true</HasBoard><Lat>41.729061485529876</Lat><Lon>44.80623782085075</Lon><Name>მუშათა ქუჩა - [1830]</Name><Routes>36:1</Routes><Sequence>0</Sequence><StopId>1830</StopId><Type>bus</Type><Virtual>false</Virtual></Stops><Stops><Forward>false</Forward><HasBoard>true</HasBoard><Lat>41.72753600000051</Lat><Lon>44.79962200000062</Lon><Name>ხიმშიაშვილის ქუჩა - [1833]</Name><Routes>36:1</Routes><Sequence>0</Sequence><StopId>1833</StopId><Type>bus</Type><Virtual>true</Virtual></Stops><Stops><Forward>false</Forward><HasBoard>true</HasBoard><Lat>41.72814300000041</Lat><Lon>44.8018210000006</Lon><Name>ჩხიკვაძის ქუჩა - [1832]</Name><Routes>36:1</Routes><Sequence>0</Sequence><StopId>1832</StopId><Type>bus</Type><Virtual>true</Virtual></Stops><Stops><Forward>false</Forward><HasBoard>true</HasBoard><Lat>41.732855910413264</Lat><Lon>44.78439249051297</Lon><Name>სს თელასი - [908]</Name><Routes>11:1</Routes><Routes>15:1</Routes><Routes>20:1</Routes><Routes>21:0</Routes><Routes>27:1</Routes><Routes>33:1</Routes><Routes>46:1</Routes><Routes>51:1</Routes><Routes>84:1</Routes><Routes>86:1</Routes><Sequence>0</Sequence><StopId>908</StopId><Type>bus</Type><Virtual>false</Virtual></Stops><Stops><Forward>false</Forward><HasBoard>true</HasBoard><Lat>41.73016105921978</Lat><Lon>44.78608839934305</Lon><Name>დიდუბის პანთეონი - [909]</Name><Routes>11:1</Routes><Routes>15:1</Routes><Routes>20:1</Routes><Routes>21:0</Routes><Routes>27:1</Routes><Routes>33:1</Routes><Routes>46:1</Routes><Routes>51:1</Routes><Routes>84:1</Routes><Routes>86:1</Routes><Sequence>0</Sequence><StopId>909</StopId><Type>bus</Type><Virtual>false</Virtual></Stops><Stops><Forward>false</Forward><HasBoard>true</HasBoard><Lat>41.66948100000851</Lat><Lon>44.9653610000001</Lon><Name>აეროპორტი - [1838]</Name><Routes>37:1</Routes><Sequence>0</Sequence><StopId>1838</StopId><Type>bus</Type><Virtual>true</Virtual></Stops><Stops><Forward>false</Forward><HasBoard>true</HasBoard><Lat>41.78490474549143</Lat><Lon>44.82989480686464</Lon><Name>მუხიანის IV ა მ/რ #5 - [1450]</Name><Routes>79:0</Routes><Routes>86:0</Routes><Routes>95:0</Routes><Sequence>0</Sequence><StopId>1450</StopId><Type>bus</Type><Virtual>true</Virtual></Stops><Stops><Forward>false</Forward><HasBoard>true</HasBoard><Lat>41.690454000005566</Lat><Lon>44.8339650000005</Lon><Name>დოესის ქუჩა - [1834]</Name><Routes>37:0</Routes><Sequence>0</Sequence><StopId>1834</StopId><Type>bus</Type><Virtual>true</Virtual></Stops><Stops><Forward>false</Forward><HasBoard>true</HasBoard><Lat>41.68006300000704</Lat><Lon>44.95787500000012</Lon><Name>ტერმინალი გაკო - [1837]</Name><Routes>37:1</Routes><Sequence>0</Sequence><StopId>1837</StopId><Type>bus</Type><Virtual>true</Virtual></Stops><Stops><Forward>false</Forward><HasBoard>true</HasBoard><Lat>41.680184000007024</Lat><Lon>44.95748500000012</Lon><Name>ტერმინალი გაკო - [1836]</Name><Routes>37:0</Routes><Sequence>0</Sequence><StopId>1836</StopId><Type>bus</Type><Virtual>true</Virtual></Stops><Stops><Forward>false</Forward><HasBoard>true</HasBoard><Lat>41.721516205500926</Lat><Lon>44.73371434112386</Lon><Name>მიქელაძის ქუჩა - [989]</Name><Routes>24:0</Routes><Routes>88:1</Routes><Routes>140:0</Routes><Sequence>0</Sequence><StopId>989</StopId><Type>bus</Type><Virtual>false</Virtual></Stops><Stops><Forward>false</Forward><HasBoard>true</HasBoard><Lat>41.721236982321656</Lat><Lon>44.730833595418865</Lon><Name>#122 საჯარო სკოლა - [987]</Name><Routes>24:0</Routes><Routes>88:1</Routes><Routes>140:0</Routes><Sequence>0</Sequence><StopId>987</StopId><Type>bus</Type><Virtual>false</Virtual></Stops><Stops><Forward>false</Forward><HasBoard>true</HasBoard><Lat>41.70035700000425</Lat><Lon>44.77287600000068</Lon><Name>ზემო ვერა - [3240]</Name><Routes>78:1</Routes><Sequence>0</Sequence><StopId>3240</StopId><Type>bus</Type><Virtual>false</Virtual></Stops><Stops><Forward>false</Forward><HasBoard>true</HasBoard><Lat>41.72148350382434</Lat><Lon>44.73086165378548</Lon><Name>#122 საჯარო სკოლა - [988]</Name><Routes>24:1</Routes><Routes>140:1</Routes><Sequence>0</Sequence><StopId>988</StopId><Type>bus</Type><Virtual>false</Virtual></Stops><Stops><Forward>false</Forward><HasBoard>true</HasBoard><Lat>41.710308000002875</Lat><Lon>44.73002300000082</Lon><Name># საჯარო სკოლა - [3242]</Name><Routes>9:1</Routes><Routes>34:1</Routes><Routes>61:1</Routes><Routes>82:0</Routes><Sequence>0</Sequence><StopId>3242</StopId><Type>bus</Type><